name,rating,logo,website,lat,lon
Oloo,4.7,http://dummyimage.com/105x137.bmp/5fa2dd/ffffff,https://hubpages.com,47.495683,19.055132
Skynoodle,3.2,http://dummyimage.com/119x250.jpg/5fa2dd/ffffff,https://imdb.com,47.509588,19.023602
Jamia,1.4,http://dummyimage.com/139x106.jpg/dddddd/000000,https://disqus.com,47.483332,19.016032
Demivee,3.4,http://dummyimage.com/136x113.bmp/cc0000/ffffff,http://diigo.com,47.482824,19.066548
Dablist,3.6,http://dummyimage.com/183x250.bmp/cc0000/ffffff,http://stanford.edu,47.496963,19.068358
Devpulse,3.0,http://dummyimage.com/129x183.jpg/cc0000/ffffff,http://trellian.com,47.487903,19.067807
Skidoo,3.3,http://dummyimage.com/148x188.bmp/cc0000/ffffff,http://parallels.com,47.507815,19.023284
Jaxbean,4.1,http://dummyimage.com/171x188.jpg/5fa2dd/ffffff,https://gmpg.org,47.496934,19.037908
Skidoo,5.0,http://dummyimage.com/183x112.png/dddddd/000000,http://buzzfeed.com,47.490683,19.022833
Kazio,4.5,http://dummyimage.com/233x186.jpg/5fa2dd/ffffff,http://unicef.org,47.499499,19.021323
Eidel,1.4,http://dummyimage.com/112x119.png/dddddd/000000,https://blogger.com,47.48725,19.057673
Meevee,1.7,http://dummyimage.com/119x163.bmp/ff4444/ffffff,https://latimes.com,47.486216,19.01496
Meembee,3.8,http://dummyimage.com/211x167.jpg/5fa2dd/ffffff,http://1und1.de,47.493293,19.068154
Meemm,3.0,http://dummyimage.com/225x231.png/ff4444/ffffff,http://mapquest.com,47.511009,19.073979
Quamba,4.4,http://dummyimage.com/180x183.jpg/ff4444/ffffff,http://moonfruit.com,47.499793,19.020542
Leenti,1.5,http://dummyimage.com/139x190.png/ff4444/ffffff,https://vistaprint.com,47.499654,19.07787
Skyndu,1.2,http://dummyimage.com/120x103.png/cc0000/ffffff,http://yahoo.com,47.483007,19.0704
Edgeclub,2.3,http://dummyimage.com/204x110.bmp/dddddd/000000,http://vk.com,47.479901,19.02509
Eidel,1.6,http://dummyimage.com/110x240.png/cc0000/ffffff,https://icio.us,47.511211,19.035986
Zava,4.0,http://dummyimage.com/166x163.png/dddddd/000000,https://naver.com,47.50301,19.074104
Omba,2.6,http://dummyimage.com/206x136.bmp/dddddd/000000,http://ehow.com,47.502435,19.064735
Realbuzz,4.6,http://dummyimage.com/140x128.bmp/cc0000/ffffff,https://privacy.gov.au,47.481865,19.016956
Brainlounge,2.5,http://dummyimage.com/163x115.png/ff4444/ffffff,https://arizona.edu,47.480317,19.043901
Trupe,1.6,http://dummyimage.com/153x220.png/ff4444/ffffff,http://joomla.org,47.482163,19.045122
Oodoo,3.1,http://dummyimage.com/218x103.bmp/dddddd/000000,https://tiny.cc,47.501372,19.03215
Bubbletube,2.8,http://dummyimage.com/140x159.png/dddddd/000000,http://bloomberg.com,47.493388,19.019009
Browsebug,1.7,http://dummyimage.com/191x147.jpg/5fa2dd/ffffff,http://go.com,47.49688,19.036164
Cogidoo,1.1,http://dummyimage.com/150x135.jpg/5fa2dd/ffffff,https://hp.com,47.494993,19.07647
Voonyx,1.8,http://dummyimage.com/234x217.bmp/5fa2dd/ffffff,https://networkadvertising.org,47.480891,19.030925
Meeveo,3.3,http://dummyimage.com/104x153.jpg/5fa2dd/ffffff,https://earthlink.net,47.509337,19.042368
Meetz,1.5,http://dummyimage.com/101x202.bmp/dddddd/000000,https://xrea.com,47.494213,19.052251
Skivee,1.9,http://dummyimage.com/205x153.png/ff4444/ffffff,http://example.com,47.506193,19.053216
Shufflester,1.6,http://dummyimage.com/111x119.jpg/5fa2dd/ffffff,https://github.com,47.504448,19.018957
Lazzy,4.4,http://dummyimage.com/210x133.png/cc0000/ffffff,https://opera.com,47.485435,19.073926
Mynte,4.8,http://dummyimage.com/249x230.png/ff4444/ffffff,http://pinterest.com,47.486663,19.073876
Youbridge,1.5,http://dummyimage.com/118x193.bmp/ff4444/ffffff,https://npr.org,47.484711,19.048972
Abata,5.0,http://dummyimage.com/194x224.bmp/cc0000/ffffff,https://si.edu,47.48962,19.070539
Voomm,2.7,http://dummyimage.com/129x164.bmp/5fa2dd/ffffff,https://reference.com,47.497542,19.080875
Mynte,4.7,http://dummyimage.com/149x134.png/5fa2dd/ffffff,http://newyorker.com,47.492795,19.073507
Edgepulse,4.2,http://dummyimage.com/197x103.png/5fa2dd/ffffff,https://psu.edu,47.492744,19.028372
Flashdog,1.6,http://dummyimage.com/202x242.jpg/ff4444/ffffff,http://army.mil,47.480598,19.067166
Tagpad,1.3,http://dummyimage.com/172x230.png/dddddd/000000,http://cocolog-nifty.com,47.480927,19.014607
Photofeed,3.2,http://dummyimage.com/100x242.bmp/ff4444/ffffff,https://mapy.cz,47.484428,19.033278
Oozz,1.2,http://dummyimage.com/101x187.png/dddddd/000000,https://salon.com,47.50857,19.051524
Topicware,1.5,http://dummyimage.com/118x170.bmp/cc0000/ffffff,https://prlog.org,47.509056,19.079499
Centidel,3.8,http://dummyimage.com/203x115.bmp/cc0000/ffffff,https://vkontakte.ru,47.505952,19.080837
Yoveo,3.4,http://dummyimage.com/178x151.jpg/dddddd/000000,http://craigslist.org,47.502197,19.030523
Zoomlounge,1.5,http://dummyimage.com/108x183.jpg/dddddd/000000,https://psu.edu,47.479317,19.069041
Dazzlesphere,1.8,http://dummyimage.com/205x123.jpg/5fa2dd/ffffff,https://pagesperso-orange.fr,47.479666,19.080347
Flashpoint,3.9,http://dummyimage.com/247x145.bmp/ff4444/ffffff,https://house.gov,47.496907,19.07279
Flipbug,3.4,http://dummyimage.com/123x171.jpg/5fa2dd/ffffff,http://mac.com,47.484114,19.043188
Yozio,1.7,http://dummyimage.com/217x211.bmp/dddddd/000000,http://latimes.com,47.499402,19.014506
Skynoodle,3.2,http://dummyimage.com/182x163.bmp/ff4444/ffffff,http://hostgator.com,47.488372,19.059343
Jabbersphere,2.7,http://dummyimage.com/130x151.bmp/5fa2dd/ffffff,http://constantcontact.com,47.504472,19.035889
Layo,3.3,http://dummyimage.com/101x179.jpg/dddddd/000000,http://godaddy.com,47.490367,19.063624
Meetz,1.3,http://dummyimage.com/181x123.png/dddddd/000000,http://techcrunch.com,47.482182,19.077646
Browsedrive,2.5,http://dummyimage.com/172x224.bmp/ff4444/ffffff,https://zdnet.com,47.503204,19.02747
Skimia,3.6,http://dummyimage.com/220x180.bmp/dddddd/000000,http://jimdo.com,47.490972,19.047481
Blognation,3.6,http://dummyimage.com/179x106.jpg/5fa2dd/ffffff,https://prweb.com,47.499337,19.078541
Digitube,2.4,http://dummyimage.com/173x106.png/5fa2dd/ffffff,https://intel.com,47.505533,19.013893
Dabjam,3.8,http://dummyimage.com/203x166.jpg/cc0000/ffffff,http://mlb.com,47.481636,19.016393
Fivebridge,3.1,http://dummyimage.com/189x142.bmp/cc0000/ffffff,https://deviantart.com,47.482316,19.033739
Riffwire,4.5,http://dummyimage.com/201x182.bmp/ff4444/ffffff,https://fastcompany.com,47.508367,19.015683
Photobean,2.2,http://dummyimage.com/130x187.bmp/cc0000/ffffff,https://craigslist.org,47.486644,19.016921
InnoZ,1.2,http://dummyimage.com/173x198.png/ff4444/ffffff,http://histats.com,47.494044,19.05648
Camido,3.4,http://dummyimage.com/230x132.jpg/ff4444/ffffff,http://msn.com,47.506037,19.043337
Yozio,4.7,http://dummyimage.com/222x138.png/cc0000/ffffff,https://dailymail.co.uk,47.491099,19.040517
Skyble,4.0,http://dummyimage.com/156x172.jpg/cc0000/ffffff,https://ucsd.edu,47.50278,19.040255
Tanoodle,3.5,http://dummyimage.com/150x188.jpg/cc0000/ffffff,https://exblog.jp,47.484254,19.055192
Wordpedia,4.1,http://dummyimage.com/107x206.png/cc0000/ffffff,https://clickbank.net,47.494948,19.042517
Wikizz,3.8,http://dummyimage.com/120x197.jpg/ff4444/ffffff,http://prnewswire.com,47.483955,19.0258
Avamm,4.0,http://dummyimage.com/160x135.jpg/dddddd/000000,https://china.com.cn,47.485264,19.028772
Yata,4.7,http://dummyimage.com/152x165.bmp/ff4444/ffffff,http://va.gov,47.491441,19.023613
Lajo,2.1,http://dummyimage.com/247x111.png/cc0000/ffffff,http://networksolutions.com,47.479222,19.063324
Twimm,1.9,http://dummyimage.com/192x164.bmp/ff4444/ffffff,http://aboutads.info,47.514011,19.049842
Jetpulse,4.1,http://dummyimage.com/119x113.bmp/dddddd/000000,https://google.ca,47.506375,19.061713
Riffpedia,1.9,http://dummyimage.com/154x246.jpg/dddddd/000000,http://epa.gov,47.499166,19.053791
Rhynyx,4.9,http://dummyimage.com/212x198.bmp/cc0000/ffffff,http://jugem.jp,47.48377,19.05593
Twitterlist,2.0,http://dummyimage.com/121x125.bmp/dddddd/000000,https://baidu.com,47.505801,19.042067
Mybuzz,3.4,http://dummyimage.com/247x241.bmp/cc0000/ffffff,https://businesswire.com,47.485911,19.04073
Oozz,3.1,http://dummyimage.com/213x125.bmp/ff4444/ffffff,http://freewebs.com,47.506199,19.026038
Flipstorm,1.5,http://dummyimage.com/230x142.jpg/cc0000/ffffff,https://microsoft.com,47.486507,19.05164
Roomm,5.0,http://dummyimage.com/195x250.png/5fa2dd/ffffff,https://xrea.com,47.485329,19.051593
Bluejam,3.4,http://dummyimage.com/169x182.bmp/5fa2dd/ffffff,http://nba.com,47.501005,19.03595
Blogtag,1.1,http://dummyimage.com/183x162.jpg/dddddd/000000,http://nba.com,47.505407,19.015194
Mynte,4.3,http://dummyimage.com/211x230.jpg/cc0000/ffffff,https://dailymail.co.uk,47.487793,19.056005
Photojam,2.1,http://dummyimage.com/250x171.png/dddddd/000000,https://slideshare.net,47.482536,19.028204
Trilith,3.1,http://dummyimage.com/129x127.png/cc0000/ffffff,http://bloglines.com,47.512928,19.056743
Zoomzone,1.7,http://dummyimage.com/144x201.bmp/dddddd/000000,https://earthlink.net,47.505808,19.014066
Leenti,1.4,http://dummyimage.com/230x230.bmp/dddddd/000000,http://clickbank.net,47.50072,19.019195
Tagfeed,2.1,http://dummyimage.com/172x235.bmp/ff4444/ffffff,https://furl.net,47.492175,19.04983
Topiclounge,1.1,http://dummyimage.com/152x114.jpg/5fa2dd/ffffff,http://tripadvisor.com,47.513974,19.064548
Skimia,5.0,http://dummyimage.com/203x240.bmp/ff4444/ffffff,http://mtv.com,47.506923,19.056294
Oyonder,2.5,http://dummyimage.com/103x146.png/5fa2dd/ffffff,http://goo.gl,47.497914,19.071954
Realbridge,3.1,http://dummyimage.com/110x246.png/5fa2dd/ffffff,http://skype.com,47.499998,19.051292
Meedoo,3.8,http://dummyimage.com/228x207.bmp/cc0000/ffffff,http://etsy.com,47.511949,19.042119
Plambee,4.3,http://dummyimage.com/214x189.jpg/ff4444/ffffff,https://aol.com,47.509755,19.050858
Jabbersphere,4.3,http://dummyimage.com/205x194.jpg/5fa2dd/ffffff,http://jimdo.com,47.494402,19.070377
Tambee,2.1,http://dummyimage.com/226x100.png/5fa2dd/ffffff,https://privacy.gov.au,47.481228,19.014829
Skimia,1.8,http://dummyimage.com/201x220.jpg/ff4444/ffffff,http://harvard.edu,47.48175,19.02724
Zoonder,1.8,http://dummyimage.com/112x133.png/5fa2dd/ffffff,http://boston.com,47.504782,19.03029
Edgeclub,4.0,http://dummyimage.com/101x159.bmp/dddddd/000000,http://bandcamp.com,47.508548,19.048683
Roombo,4.4,http://dummyimage.com/136x178.jpg/5fa2dd/ffffff,https://msu.edu,47.483979,19.073319
Flashset,2.3,http://dummyimage.com/237x208.jpg/cc0000/ffffff,https://auda.org.au,47.485073,19.02754
Meembee,2.0,http://dummyimage.com/205x104.png/ff4444/ffffff,http://guardian.co.uk,47.491447,19.047973
Aivee,3.5,http://dummyimage.com/113x225.jpg/dddddd/000000,http://thetimes.co.uk,47.513789,19.057191
Thoughtmix,4.3,http://dummyimage.com/217x114.jpg/5fa2dd/ffffff,http://google.com.hk,47.505128,19.034697
Browsetype,4.6,http://dummyimage.com/174x140.png/dddddd/000000,https://meetup.com,47.489653,19.045253
Kwilith,3.0,http://dummyimage.com/115x124.bmp/dddddd/000000,http://businesswire.com,47.507131,19.046842
Babblestorm,1.6,http://dummyimage.com/141x152.png/ff4444/ffffff,https://shareasale.com,47.505938,19.027728
Edgeblab,4.7,http://dummyimage.com/164x195.png/ff4444/ffffff,http://msn.com,47.513012,19.070616
Jaloo,3.9,http://dummyimage.com/200x210.jpg/dddddd/000000,http://hubpages.com,47.510944,19.016242
Rhynyx,2.3,http://dummyimage.com/108x132.png/ff4444/ffffff,https://feedburner.com,47.484985,19.039061
Geba,2.0,http://dummyimage.com/133x246.png/dddddd/000000,https://twitpic.com,47.491967,19.0481
Twitterbeat,2.2,http://dummyimage.com/223x133.png/cc0000/ffffff,http://about.me,47.495522,19.038965
Livetube,1.8,http://dummyimage.com/195x234.bmp/ff4444/ffffff,https://baidu.com,47.496904,19.024761
Chatterbridge,2.9,http://dummyimage.com/240x215.bmp/5fa2dd/ffffff,http://army.mil,47.490129,19.057416
Eidel,3.8,http://dummyimage.com/178x236.jpg/cc0000/ffffff,http://cyberchimps.com,47.493537,19.014113
Roomm,3.4,http://dummyimage.com/230x221.bmp/cc0000/ffffff,http://discovery.com,47.513219,19.069248
Realbuzz,2.4,http://dummyimage.com/127x111.jpg/dddddd/000000,http://prlog.org,47.50006,19.029854
Wordware,2.6,http://dummyimage.com/246x188.bmp/ff4444/ffffff,https://163.com,47.50795,19.04329
Gabtune,2.5,http://dummyimage.com/101x107.png/5fa2dd/ffffff,https://umn.edu,47.507078,19.059261
Yodel,3.2,http://dummyimage.com/166x169.jpg/dddddd/000000,https://cam.ac.uk,47.505051,19.068107
Avavee,1.5,http://dummyimage.com/107x213.bmp/ff4444/ffffff,http://nationalgeographic.com,47.50469,19.023618
Devbug,4.8,http://dummyimage.com/243x222.jpg/ff4444/ffffff,http://ihg.com,47.488238,19.067861
Abata,4.0,http://dummyimage.com/107x242.bmp/ff4444/ffffff,https://nps.gov,47.504863,19.046009
Kayveo,1.3,http://dummyimage.com/225x236.bmp/cc0000/ffffff,https://freewebs.com,47.502349,19.035585
Podcat,4.7,http://dummyimage.com/155x105.bmp/ff4444/ffffff,https://google.com.hk,47.496129,19.065928
Mymm,3.3,http://dummyimage.com/226x212.png/dddddd/000000,http://cornell.edu,47.481399,19.055962
Kazio,4.2,http://dummyimage.com/156x223.bmp/ff4444/ffffff,http://xrea.com,47.487622,19.047381
Yakijo,4.6,http://dummyimage.com/157x120.png/5fa2dd/ffffff,http://gravatar.com,47.512983,19.044274
Kare,1.0,http://dummyimage.com/216x130.png/ff4444/ffffff,http://domainmarket.com,47.50629,19.043768
Rhybox,2.9,http://dummyimage.com/157x116.bmp/ff4444/ffffff,http://ted.com,47.483126,19.069564
Oodoo,2.3,http://dummyimage.com/104x208.bmp/5fa2dd/ffffff,http://angelfire.com,47.481557,19.056816
Fadeo,3.5,http://dummyimage.com/152x116.png/5fa2dd/ffffff,http://sourceforge.net,47.499474,19.036521
Buzzshare,3.2,http://dummyimage.com/127x220.png/ff4444/ffffff,https://tiny.cc,47.501108,19.062083
Skimia,1.0,http://dummyimage.com/239x248.bmp/ff4444/ffffff,https://admin.ch,47.504171,19.041427
Tazzy,2.3,http://dummyimage.com/210x183.png/5fa2dd/ffffff,https://liveinternet.ru,47.500467,19.024122
Fivechat,4.1,http://dummyimage.com/213x134.png/5fa2dd/ffffff,http://uol.com.br,47.48497,19.043343
BlogXS,3.5,http://dummyimage.com/229x162.bmp/5fa2dd/ffffff,https://msu.edu,47.50336,19.023954
Reallinks,2.5,http://dummyimage.com/120x166.png/ff4444/ffffff,https://wiley.com,47.486053,19.066003
Riffwire,2.1,http://dummyimage.com/233x151.png/5fa2dd/ffffff,http://mysql.com,47.494266,19.050857
Trunyx,4.2,http://dummyimage.com/205x132.png/cc0000/ffffff,http://prweb.com,47.483683,19.028337
Eamia,3.6,http://dummyimage.com/162x242.png/ff4444/ffffff,https://indiatimes.com,47.496103,19.064636
Blogpad,3.8,http://dummyimage.com/227x154.png/cc0000/ffffff,https://ihg.com,47.478741,19.041347
Topdrive,3.9,http://dummyimage.com/191x105.png/5fa2dd/ffffff,http://wsj.com,47.480153,19.058115
Snaptags,4.0,http://dummyimage.com/236x201.png/ff4444/ffffff,https://icio.us,47.496185,19.058232
Eare,3.9,http://dummyimage.com/217x176.png/dddddd/000000,http://dagondesign.com,47.49387,19.069819
Kwideo,3.6,http://dummyimage.com/170x243.jpg/5fa2dd/ffffff,https://livejournal.com,47.489641,19.045821
Thoughtmix,4.6,http://dummyimage.com/110x137.png/5fa2dd/ffffff,http://comcast.net,47.488434,19.078355
Brainverse,2.8,http://dummyimage.com/130x202.bmp/dddddd/000000,https://cdbaby.com,47.501021,19.051517
Linkbridge,3.2,http://dummyimage.com/203x246.png/ff4444/ffffff,http://t-online.de,47.492171,19.048298
Innotype,1.5,http://dummyimage.com/153x216.png/ff4444/ffffff,http://google.ca,47.511921,19.073268
Gigaclub,4.3,http://dummyimage.com/249x156.png/ff4444/ffffff,https://jiathis.com,47.487342,19.056745
Photojam,4.3,http://dummyimage.com/126x155.bmp/ff4444/ffffff,http://networkadvertising.org,47.480885,19.073682
Kwilith,4.3,http://dummyimage.com/196x206.jpg/5fa2dd/ffffff,http://chron.com,47.508214,19.029295
Kazu,1.5,http://dummyimage.com/217x209.jpg/5fa2dd/ffffff,http://photobucket.com,47.481013,19.050025
Fanoodle,1.5,http://dummyimage.com/181x122.jpg/ff4444/ffffff,https://blogs.com,47.486037,19.035897
Wordpedia,1.2,http://dummyimage.com/157x248.jpg/ff4444/ffffff,https://vimeo.com,47.492759,19.06869
Miboo,3.3,http://dummyimage.com/182x134.bmp/cc0000/ffffff,https://salon.com,47.486733,19.055383
Skiptube,3.3,http://dummyimage.com/170x104.png/ff4444/ffffff,https://odnoklassniki.ru,47.499911,19.069879
Devbug,1.1,http://dummyimage.com/206x246.bmp/cc0000/ffffff,https://microsoft.com,47.48867,19.033361
Zoomlounge,2.9,http://dummyimage.com/224x150.jpg/5fa2dd/ffffff,https://upenn.edu,47.505785,19.051272
Quimm,2.9,http://dummyimage.com/235x238.jpg/dddddd/000000,http://thetimes.co.uk,47.510335,19.062764
Yodoo,2.5,http://dummyimage.com/102x136.jpg/dddddd/000000,http://pen.io,47.481032,19.024026
Vitz,1.4,http://dummyimage.com/145x243.png/dddddd/000000,http://state.gov,47.482079,19.075741
Mita,4.5,http://dummyimage.com/245x166.jpg/ff4444/ffffff,https://histats.com,47.505365,19.059052
Devpoint,1.8,http://dummyimage.com/231x129.bmp/5fa2dd/ffffff,https://google.fr,47.491372,19.07772
Photolist,1.3,http://dummyimage.com/127x247.bmp/dddddd/000000,http://geocities.com,47.486599,19.017014
Kayveo,2.8,http://dummyimage.com/158x211.bmp/ff4444/ffffff,https://smh.com.au,47.490743,19.01496
Buzzbean,3.9,http://dummyimage.com/127x140.png/cc0000/ffffff,https://histats.com,47.48996,19.048363
Ntag,3.6,http://dummyimage.com/238x224.jpg/dddddd/000000,https://oakley.com,47.48342,19.022804
Skiba,1.8,http://dummyimage.com/124x109.bmp/5fa2dd/ffffff,http://va.gov,47.504541,19.076185
Zoomcast,4.8,http://dummyimage.com/203x200.png/cc0000/ffffff,https://scientificamerican.com,47.496513,19.064684
Skinix,3.9,http://dummyimage.com/138x135.png/ff4444/ffffff,https://msn.com,47.480995,19.030951
Meejo,4.1,http://dummyimage.com/190x237.bmp/5fa2dd/ffffff,http://issuu.com,47.494376,19.026902
Vitz,3.5,http://dummyimage.com/169x218.png/ff4444/ffffff,https://desdev.cn,47.497067,19.07073
Jaloo,3.9,http://dummyimage.com/235x191.jpg/dddddd/000000,http://yellowbook.com,47.505893,19.059838
Vimbo,1.3,http://dummyimage.com/174x132.png/5fa2dd/ffffff,http://mtv.com,47.500851,19.021829
Wikibox,1.3,http://dummyimage.com/136x220.png/dddddd/000000,https://qq.com,47.497696,19.074342
Layo,2.5,http://dummyimage.com/133x189.png/ff4444/ffffff,http://tiny.cc,47.489748,19.08019
Bluejam,3.7,http://dummyimage.com/201x182.bmp/5fa2dd/ffffff,http://bbc.co.uk,47.492213,19.064994
Jayo,1.4,http://dummyimage.com/133x175.bmp/dddddd/000000,http://columbia.edu,47.498693,19.051266
Twitterlist,3.7,http://dummyimage.com/202x166.png/5fa2dd/ffffff,http://cloudflare.com,47.479966,19.062099
BlogXS,3.3,http://dummyimage.com/148x175.png/ff4444/ffffff,http://hhs.gov,47.488464,19.077545
Devcast,3.7,http://dummyimage.com/202x107.bmp/5fa2dd/ffffff,https://cbslocal.com,47.485542,19.055389
Eamia,2.8,http://dummyimage.com/138x160.bmp/ff4444/ffffff,http://vistaprint.com,47.49954,19.061984
Edgeblab,3.9,http://dummyimage.com/188x153.bmp/ff4444/ffffff,https://hugedomains.com,47.491734,19.079968
Buzzbean,2.2,http://dummyimage.com/118x211.png/5fa2dd/ffffff,http://samsung.com,47.495661,19.030721
Photolist,3.2,http://dummyimage.com/132x205.bmp/cc0000/ffffff,https://goo.ne.jp,47.511235,19.043785
Kimia,2.4,http://dummyimage.com/153x201.bmp/5fa2dd/ffffff,http://sciencedaily.com,47.489981,19.074021
Dablist,4.3,http://dummyimage.com/157x146.bmp/dddddd/000000,https://phoca.cz,47.492756,19.019403
Yodoo,4.2,http://dummyimage.com/236x151.jpg/cc0000/ffffff,https://weibo.com,47.510408,19.053084
Blogpad,5.0,http://dummyimage.com/185x178.jpg/cc0000/ffffff,https://umich.edu,47.479851,19.029905
Wikizz,2.8,http://dummyimage.com/158x121.png/ff4444/ffffff,https://devhub.com,47.491806,19.082379
Chatterbridge,3.0,http://dummyimage.com/183x202.png/dddddd/000000,https://shareasale.com,47.512849,19.058184
Digitube,4.2,http://dummyimage.com/162x206.png/cc0000/ffffff,http://intel.com,47.504195,19.052454
Tagfeed,4.5,http://dummyimage.com/213x144.jpg/cc0000/ffffff,http://51.la,47.507044,19.050056
Aivee,1.6,http://dummyimage.com/140x179.bmp/5fa2dd/ffffff,https://over-blog.com,47.492708,19.043823
Meemm,3.1,http://dummyimage.com/177x170.jpg/cc0000/ffffff,http://yandex.ru,47.4968,19.017793
Viva,4.6,http://dummyimage.com/186x152.bmp/5fa2dd/ffffff,http://ted.com,47.506534,19.060738
Thoughtstorm,1.6,http://dummyimage.com/141x171.bmp/cc0000/ffffff,http://state.tx.us,47.509325,19.081128
Wordify,1.7,http://dummyimage.com/124x173.bmp/dddddd/000000,https://i2i.jp,47.506555,19.052166
Skalith,2.5,http://dummyimage.com/145x161.png/ff4444/ffffff,https://studiopress.com,47.497319,19.055672
Skyndu,1.3,http://dummyimage.com/121x148.jpg/5fa2dd/ffffff,https://hexun.com,47.481951,19.039073
Snaptags,2.5,http://dummyimage.com/164x109.jpg/5fa2dd/ffffff,http://fastcompany.com,47.502396,19.077922
Browsebug,3.1,http://dummyimage.com/106x236.jpg/dddddd/000000,https://ca.gov,47.504525,19.027826
Kwinu,4.9,http://dummyimage.com/151x170.jpg/ff4444/ffffff,http://dedecms.com,47.484741,19.048784
Voolia,1.6,http://dummyimage.com/140x179.jpg/ff4444/ffffff,https://t-online.de,47.505598,19.015378
Photobean,2.9,http://dummyimage.com/225x216.bmp/ff4444/ffffff,http://msu.edu,47.501327,19.071782
Eayo,4.7,http://dummyimage.com/150x190.bmp/5fa2dd/ffffff,http://sfgate.com,47.510902,19.021479
Thoughtbeat,2.0,http://dummyimage.com/198x201.png/5fa2dd/ffffff,http://homestead.com,47.481145,19.04491
Devpoint,2.2,http://dummyimage.com/120x193.bmp/dddddd/000000,https://google.co.uk,47.481948,19.070413
Centidel,2.5,http://dummyimage.com/144x140.bmp/dddddd/000000,https://mtv.com,47.485686,19.066218
Demizz,2.9,http://dummyimage.com/133x105.bmp/dddddd/000000,https://barnesandnoble.com,47.500029,19.032627
Skiba,1.3,http://dummyimage.com/119x214.jpg/cc0000/ffffff,https://bing.com,47.490954,19.027234
Quinu,2.8,http://dummyimage.com/226x151.bmp/ff4444/ffffff,http://bravesites.com,47.506317,19.034806
Gigabox,2.9,http://dummyimage.com/180x112.jpg/cc0000/ffffff,http://csmonitor.com,47.502938,19.078591
Feedmix,2.5,http://dummyimage.com/222x175.png/5fa2dd/ffffff,http://ox.ac.uk,47.501217,19.072469
Eabox,1.5,http://dummyimage.com/185x179.jpg/dddddd/000000,https://live.com,47.484751,19.0328
Wikivu,3.3,http://dummyimage.com/164x135.bmp/cc0000/ffffff,http://statcounter.com,47.503613,19.014507
Trilia,2.1,http://dummyimage.com/164x155.png/ff4444/ffffff,https://nydailynews.com,47.486093,19.076461
Meembee,2.5,http://dummyimage.com/173x176.bmp/5fa2dd/ffffff,https://tuttocitta.it,47.496691,19.025495
Thoughtmix,2.4,http://dummyimage.com/178x142.png/ff4444/ffffff,https://taobao.com,47.492466,19.028037
Devcast,3.2,http://dummyimage.com/228x214.bmp/dddddd/000000,https://tinypic.com,47.502613,19.053719
Photofeed,1.4,http://dummyimage.com/193x155.bmp/ff4444/ffffff,https://rambler.ru,47.492514,19.059496
Tagfeed,1.5,http://dummyimage.com/116x199.png/5fa2dd/ffffff,https://phpbb.com,47.513923,19.046539
Zoomdog,3.8,http://dummyimage.com/140x120.jpg/cc0000/ffffff,http://google.ru,47.50881,19.07695
Yakijo,2.9,http://dummyimage.com/221x130.jpg/dddddd/000000,http://marketwatch.com,47.505535,19.075546
Roodel,1.9,http://dummyimage.com/170x210.jpg/cc0000/ffffff,http://bbb.org,47.489387,19.07471
Jabberbean,4.7,http://dummyimage.com/177x178.png/cc0000/ffffff,https://webnode.com,47.511087,19.046392
Browsedrive,2.2,http://dummyimage.com/103x209.bmp/ff4444/ffffff,https://amazonaws.com,47.486986,19.023308
Oyope,3.3,http://dummyimage.com/202x115.bmp/ff4444/ffffff,https://dion.ne.jp,47.492484,19.050479
Fanoodle,3.5,http://dummyimage.com/173x168.bmp/5fa2dd/ffffff,https://imageshack.us,47.488737,19.045183
Meedoo,4.0,http://dummyimage.com/167x171.bmp/cc0000/ffffff,https://last.fm,47.495774,19.043675
Fivechat,3.7,http://dummyimage.com/211x131.png/5fa2dd/ffffff,https://reference.com,47.499608,19.042313
Realcube,5.0,http://dummyimage.com/168x126.png/5fa2dd/ffffff,https://paginegialle.it,47.47994,19.02085
Gabcube,2.9,http://dummyimage.com/239x235.bmp/cc0000/ffffff,http://shutterfly.com,47.494512,19.045739
Feedfire,4.0,http://dummyimage.com/240x173.jpg/dddddd/000000,https://cbslocal.com,47.485372,19.044704
Blogpad,1.8,http://dummyimage.com/123x195.png/cc0000/ffffff,https://vimeo.com,47.492084,19.038873
Twitterlist,1.3,http://dummyimage.com/179x229.png/dddddd/000000,http://pbs.org,47.491532,19.027041
Flashset,3.2,http://dummyimage.com/161x220.png/ff4444/ffffff,https://instagram.com,47.513572,19.073679
Topicshots,3.0,http://dummyimage.com/134x174.jpg/ff4444/ffffff,https://theguardian.com,47.495445,19.025167
Brightbean,1.7,http://dummyimage.com/187x162.png/cc0000/ffffff,http://mapquest.com,47.51075,19.041265
Pixonyx,1.2,http://dummyimage.com/114x248.bmp/ff4444/ffffff,https://phpbb.com,47.501212,19.036961
Kimia,4.5,http://dummyimage.com/144x228.jpg/ff4444/ffffff,https://google.co.uk,47.48875,19.047005
Quatz,3.1,http://dummyimage.com/227x181.jpg/5fa2dd/ffffff,https://washingtonpost.com,47.502794,19.065291
Rhycero,2.2,http://dummyimage.com/156x190.bmp/dddddd/000000,http://360.cn,47.511024,19.057666
Dynabox,2.1,http://dummyimage.com/209x202.bmp/5fa2dd/ffffff,https://taobao.com,47.512506,19.05437
Skiba,2.9,http://dummyimage.com/243x231.jpg/dddddd/000000,https://tiny.cc,47.508983,19.055913
Browsecat,3.7,http://dummyimage.com/149x156.jpg/5fa2dd/ffffff,http://ox.ac.uk,47.479556,19.053899
Babbleblab,1.6,http://dummyimage.com/124x126.png/cc0000/ffffff,http://cbc.ca,47.496253,19.036611
Devshare,2.0,http://dummyimage.com/176x247.png/dddddd/000000,https://cnbc.com,47.504961,19.02134
Jaloo,1.9,http://dummyimage.com/147x234.png/dddddd/000000,https://ft.com,47.499892,19.024626
Cogidoo,1.7,http://dummyimage.com/118x130.jpg/cc0000/ffffff,http://independent.co.uk,47.498916,19.066477
Photojam,2.6,http://dummyimage.com/210x138.bmp/dddddd/000000,https://histats.com,47.493555,19.037736
Cogidoo,4.6,http://dummyimage.com/225x129.jpg/ff4444/ffffff,http://wikipedia.org,47.504758,19.067309
Brainlounge,4.1,http://dummyimage.com/191x174.jpg/5fa2dd/ffffff,http://ezinearticles.com,47.492448,19.076488
Youspan,2.7,http://dummyimage.com/182x100.png/cc0000/ffffff,http://squarespace.com,47.490776,19.015322
Youtags,4.7,http://dummyimage.com/117x115.jpg/ff4444/ffffff,http://youtube.com,47.506602,19.043714
Blogtags,4.4,http://dummyimage.com/160x129.png/dddddd/000000,http://nih.gov,47.499233,19.058741
Edgetag,4.6,http://dummyimage.com/122x100.png/cc0000/ffffff,https://latimes.com,47.495569,19.050937
Jaxworks,2.6,http://dummyimage.com/184x158.png/cc0000/ffffff,http://ox.ac.uk,47.504181,19.021994
Avamm,2.3,http://dummyimage.com/138x147.jpg/dddddd/000000,http://sun.com,47.509872,19.050392
Skajo,2.8,http://dummyimage.com/139x143.png/ff4444/ffffff,https://bbc.co.uk,47.511566,19.038807
Yoveo,4.7,http://dummyimage.com/208x168.jpg/ff4444/ffffff,http://fda.gov,47.485283,19.019847
Vinte,1.5,http://dummyimage.com/214x128.jpg/cc0000/ffffff,https://skype.com,47.484215,19.064644
Gabcube,4.8,http://dummyimage.com/139x106.bmp/5fa2dd/ffffff,https://disqus.com,47.488957,19.018004
Realpoint,1.2,http://dummyimage.com/171x133.png/dddddd/000000,https://phpbb.com,47.492789,19.053645
Rooxo,3.4,http://dummyimage.com/199x135.jpg/5fa2dd/ffffff,http://sourceforge.net,47.479255,19.051901
Fivespan,3.6,http://dummyimage.com/130x192.jpg/cc0000/ffffff,http://odnoklassniki.ru,47.500237,19.044036
Feedmix,1.5,http://dummyimage.com/222x104.jpg/5fa2dd/ffffff,https://dagondesign.com,47.479326,19.015446
Demizz,3.3,http://dummyimage.com/128x221.png/ff4444/ffffff,http://dedecms.com,47.49735,19.048377
Skyndu,1.6,http://dummyimage.com/199x248.png/ff4444/ffffff,http://dyndns.org,47.505987,19.029289
Wikizz,2.9,http://dummyimage.com/227x115.png/ff4444/ffffff,https://weather.com,47.507804,19.017967
Skilith,3.9,http://dummyimage.com/229x193.png/cc0000/ffffff,http://taobao.com,47.498755,19.079811
Quire,4.8,http://dummyimage.com/142x242.jpg/5fa2dd/ffffff,http://surveymonkey.com,47.483293,19.04294
Riffpath,3.5,http://dummyimage.com/145x143.bmp/5fa2dd/ffffff,https://blog.com,47.51267,19.014685
Pixope,1.8,http://dummyimage.com/106x229.bmp/ff4444/ffffff,http://mapquest.com,47.488792,19.077988
Shufflester,5.0,http://dummyimage.com/116x155.bmp/cc0000/ffffff,https://symantec.com,47.488935,19.039095
Quaxo,1.4,http://dummyimage.com/191x215.png/5fa2dd/ffffff,http://naver.com,47.494073,19.042011
Mita,5.0,http://dummyimage.com/141x158.png/cc0000/ffffff,http://w3.org,47.504621,19.076518
Trudoo,3.4,http://dummyimage.com/207x158.bmp/cc0000/ffffff,https://live.com,47.513334,19.02951
Zoombox,4.7,http://dummyimage.com/168x173.bmp/dddddd/000000,https://apache.org,47.504772,19.081577
Browsetype,4.2,http://dummyimage.com/128x111.jpg/5fa2dd/ffffff,https://fc2.com,47.504083,19.063589
Zoonoodle,2.9,http://dummyimage.com/188x237.jpg/cc0000/ffffff,http://theglobeandmail.com,47.498768,19.07847
Skiba,4.3,http://dummyimage.com/116x151.jpg/ff4444/ffffff,https://twitpic.com,47.513814,19.060758
Jabberbean,4.4,http://dummyimage.com/163x233.bmp/5fa2dd/ffffff,https://weebly.com,47.50379,19.054115
Roomm,4.2,http://dummyimage.com/149x211.bmp/5fa2dd/ffffff,http://123-reg.co.uk,47.482048,19.067179
Yambee,3.1,http://dummyimage.com/175x184.jpg/5fa2dd/ffffff,https://mediafire.com,47.499848,19.034067
Linklinks,2.6,http://dummyimage.com/107x199.bmp/cc0000/ffffff,https://aboutads.info,47.505729,19.019876
Skinix,4.8,http://dummyimage.com/196x183.bmp/cc0000/ffffff,https://geocities.com,47.499314,19.056344
Avamm,2.5,http://dummyimage.com/208x242.png/cc0000/ffffff,https://51.la,47.483039,19.075467
Blogpad,4.0,http://dummyimage.com/166x155.bmp/dddddd/000000,http://squidoo.com,47.482262,19.048073
InnoZ,1.2,http://dummyimage.com/210x176.png/ff4444/ffffff,http://networksolutions.com,47.499714,19.022591
Browsetype,4.3,http://dummyimage.com/245x152.bmp/5fa2dd/ffffff,http://icq.com,47.504939,19.053144
Skaboo,2.3,http://dummyimage.com/171x144.jpg/ff4444/ffffff,https://reddit.com,47.481437,19.046222
Yodel,3.1,http://dummyimage.com/190x238.bmp/5fa2dd/ffffff,http://sitemeter.com,47.512016,19.04695
Abatz,2.3,http://dummyimage.com/183x244.bmp/5fa2dd/ffffff,http://weather.com,47.480471,19.052618
Jamia,3.1,http://dummyimage.com/146x225.bmp/cc0000/ffffff,https://google.fr,47.48516,19.030898
JumpXS,3.1,http://dummyimage.com/130x130.png/cc0000/ffffff,https://csmonitor.com,47.489157,19.079526
Teklist,2.8,http://dummyimage.com/153x185.bmp/dddddd/000000,http://mashable.com,47.498914,19.043661
Browsetype,3.4,http://dummyimage.com/248x226.bmp/5fa2dd/ffffff,https://gov.uk,47.492473,19.032591
Demivee,1.4,http://dummyimage.com/241x149.bmp/ff4444/ffffff,http://wikimedia.org,47.49963,19.030781
Skinte,1.4,http://dummyimage.com/236x229.bmp/dddddd/000000,http://soundcloud.com,47.510853,19.062326
Buzzdog,3.1,http://dummyimage.com/152x212.png/dddddd/000000,https://acquirethisname.com,47.487724,19.080043
Eazzy,4.8,http://dummyimage.com/227x206.jpg/5fa2dd/ffffff,http://photobucket.com,47.485413,19.042786
Skyvu,1.1,http://dummyimage.com/201x129.jpg/5fa2dd/ffffff,https://google.com.hk,47.511022,19.028448
Wordtune,3.1,http://dummyimage.com/114x229.jpg/5fa2dd/ffffff,http://globo.com,47.497355,19.059278
Roomm,4.3,http://dummyimage.com/107x124.png/5fa2dd/ffffff,http://g.co,47.50844,19.026441
Demivee,1.5,http://dummyimage.com/191x151.jpg/cc0000/ffffff,http://dropbox.com,47.501575,19.060563
Talane,4.1,http://dummyimage.com/111x207.bmp/5fa2dd/ffffff,https://china.com.cn,47.49523,19.081983
Linkbuzz,3.8,http://dummyimage.com/211x131.png/5fa2dd/ffffff,https://tiny.cc,47.512853,19.069615
Brainsphere,2.9,http://dummyimage.com/139x193.bmp/cc0000/ffffff,http://google.ru,47.50401,19.048151
Vinder,3.2,http://dummyimage.com/149x133.bmp/5fa2dd/ffffff,http://theatlantic.com,47.487053,19.081081
Gabtune,1.8,http://dummyimage.com/103x118.jpg/dddddd/000000,https://ovh.net,47.481361,19.043271
Yambee,1.7,http://dummyimage.com/109x143.png/cc0000/ffffff,https://tinyurl.com,47.502444,19.025399
Skipstorm,4.7,http://dummyimage.com/230x163.bmp/cc0000/ffffff,http://gmpg.org,47.50441,19.016354
Skidoo,2.4,http://dummyimage.com/223x121.png/ff4444/ffffff,http://nationalgeographic.com,47.491681,19.049911
Kazu,4.8,http://dummyimage.com/186x203.png/cc0000/ffffff,https://technorati.com,47.503063,19.026845
Kwideo,1.3,http://dummyimage.com/214x109.png/ff4444/ffffff,https://irs.gov,47.487397,19.035608
Katz,3.6,http://dummyimage.com/205x145.jpg/cc0000/ffffff,http://wix.com,47.484602,19.0526
Thoughtworks,3.5,http://dummyimage.com/186x110.jpg/ff4444/ffffff,https://example.com,47.486173,19.015439
Babbleset,4.2,http://dummyimage.com/188x193.jpg/ff4444/ffffff,http://ucla.edu,47.503166,19.034133
Blogtags,1.9,http://dummyimage.com/180x114.bmp/ff4444/ffffff,https://webs.com,47.479835,19.071735
Photospace,4.3,http://dummyimage.com/205x190.jpg/dddddd/000000,http://timesonline.co.uk,47.496554,19.014736
Oyoba,2.3,http://dummyimage.com/118x237.bmp/dddddd/000000,http://gov.uk,47.496404,19.021418
Skajo,1.6,http://dummyimage.com/162x158.png/cc0000/ffffff,https://engadget.com,47.49926,19.026674
Agimba,1.9,http://dummyimage.com/206x215.jpg/cc0000/ffffff,https://hc360.com,47.481423,19.079858
Yozio,4.5,http://dummyimage.com/206x142.png/ff4444/ffffff,http://pbs.org,47.502893,19.022867
Brainverse,3.7,http://dummyimage.com/112x232.jpg/cc0000/ffffff,https://goo.ne.jp,47.493603,19.050215
Yadel,1.2,http://dummyimage.com/193x236.png/ff4444/ffffff,https://cpanel.net,47.495243,19.030653
Photobean,2.3,http://dummyimage.com/246x119.jpg/ff4444/ffffff,http://squarespace.com,47.496744,19.066984
Fivespan,4.5,http://dummyimage.com/126x102.jpg/dddddd/000000,https://tinyurl.com,47.51328,19.066063
Abata,2.8,http://dummyimage.com/232x130.jpg/cc0000/ffffff,http://dyndns.org,47.483466,19.021113
Skilith,2.7,http://dummyimage.com/157x225.bmp/5fa2dd/ffffff,https://harvard.edu,47.487586,19.040908
Miboo,1.5,http://dummyimage.com/116x145.jpg/dddddd/000000,http://php.net,47.490414,19.061403
Gabvine,1.4,http://dummyimage.com/222x102.png/5fa2dd/ffffff,http://rambler.ru,47.481271,19.044385
Topicblab,1.7,http://dummyimage.com/191x246.jpg/5fa2dd/ffffff,https://imageshack.us,47.507202,19.061055
Realmix,1.5,http://dummyimage.com/120x242.png/dddddd/000000,http://cornell.edu,47.497516,19.068285
Zoonoodle,1.6,http://dummyimage.com/226x103.png/cc0000/ffffff,https://rakuten.co.jp,47.513083,19.074934
Blogpad,1.6,http://dummyimage.com/238x218.bmp/dddddd/000000,https://biblegateway.com,47.492011,19.05773
Muxo,3.0,http://dummyimage.com/202x131.png/5fa2dd/ffffff,http://nydailynews.com,47.482767,19.057108
Meemm,2.7,http://dummyimage.com/203x157.jpg/5fa2dd/ffffff,http://nationalgeographic.com,47.487768,19.082191
Fadeo,1.5,http://dummyimage.com/137x114.bmp/ff4444/ffffff,https://bizjournals.com,47.503554,19.049344
Tazzy,4.9,http://dummyimage.com/247x215.bmp/5fa2dd/ffffff,https://usnews.com,47.510807,19.06898
Topicware,1.4,http://dummyimage.com/250x227.bmp/5fa2dd/ffffff,https://netvibes.com,47.496905,19.03193
Shufflebeat,1.5,http://dummyimage.com/128x125.jpg/dddddd/000000,https://cdbaby.com,47.501025,19.014957
Roombo,4.9,http://dummyimage.com/184x242.jpg/dddddd/000000,https://bbb.org,47.50451,19.052806
Muxo,1.3,http://dummyimage.com/100x139.png/cc0000/ffffff,http://oakley.com,47.484805,19.039822
Tagchat,3.8,http://dummyimage.com/120x115.bmp/5fa2dd/ffffff,http://salon.com,47.510305,19.056778
Yozio,2.5,http://dummyimage.com/175x166.bmp/cc0000/ffffff,https://discovery.com,47.494528,19.028875
Zoombox,1.6,http://dummyimage.com/142x156.jpg/ff4444/ffffff,https://diigo.com,47.498063,19.035386
Izio,4.2,http://dummyimage.com/199x180.bmp/cc0000/ffffff,http://redcross.org,47.490985,19.081096
Linkbuzz,4.2,http://dummyimage.com/155x247.bmp/dddddd/000000,https://archive.org,47.507798,19.055341
Flipbug,2.9,http://dummyimage.com/216x171.bmp/dddddd/000000,http://bloglovin.com,47.505874,19.043237
Divavu,4.1,http://dummyimage.com/152x142.jpg/ff4444/ffffff,https://fastcompany.com,47.498495,19.079344
Centizu,3.2,http://dummyimage.com/190x148.png/ff4444/ffffff,http://exblog.jp,47.478977,19.035363
Skivee,5.0,http://dummyimage.com/211x141.jpg/5fa2dd/ffffff,http://instagram.com,47.509985,19.016224
Centizu,4.4,http://dummyimage.com/133x130.jpg/5fa2dd/ffffff,https://sourceforge.net,47.483351,19.014398
Jabbersphere,1.7,http://dummyimage.com/216x213.png/ff4444/ffffff,http://netlog.com,47.501202,19.033662
Meezzy,4.9,http://dummyimage.com/247x200.jpg/dddddd/000000,http://tiny.cc,47.483746,19.078653
Vipe,1.8,http://dummyimage.com/175x113.jpg/5fa2dd/ffffff,https://w3.org,47.491896,19.033491
Wordware,2.4,http://dummyimage.com/230x249.bmp/cc0000/ffffff,https://w3.org,47.498739,19.070092
Twimm,1.6,http://dummyimage.com/200x133.bmp/5fa2dd/ffffff,http://time.com,47.504917,19.033978
Yoveo,1.5,http://dummyimage.com/206x209.bmp/dddddd/000000,http://pinterest.com,47.506619,19.04526
Topicblab,1.7,http://dummyimage.com/112x227.bmp/cc0000/ffffff,http://blinklist.com,47.481492,19.035252
Zoombox,1.9,http://dummyimage.com/168x100.bmp/ff4444/ffffff,https://timesonline.co.uk,47.508284,19.040581
Reallinks,3.2,http://dummyimage.com/174x139.png/dddddd/000000,https://yahoo.com,47.493112,19.053599
Rhynyx,4.3,http://dummyimage.com/133x209.jpg/cc0000/ffffff,https://thetimes.co.uk,47.502721,19.080826
Gabcube,2.8,http://dummyimage.com/232x218.bmp/5fa2dd/ffffff,http://bing.com,47.49237,19.039943
Plajo,3.7,http://dummyimage.com/213x118.jpg/ff4444/ffffff,https://weebly.com,47.482613,19.04292
Skipfire,3.6,http://dummyimage.com/141x179.bmp/dddddd/000000,http://liveinternet.ru,47.493339,19.053213
Shuffledrive,2.4,http://dummyimage.com/109x167.bmp/5fa2dd/ffffff,http://yandex.ru,47.49026,19.055335
Thoughtstorm,4.7,http://dummyimage.com/116x246.jpg/cc0000/ffffff,http://fema.gov,47.513006,19.01479
Meemm,4.8,http://dummyimage.com/119x138.png/cc0000/ffffff,https://accuweather.com,47.509185,19.059096
Einti,1.2,http://dummyimage.com/210x128.png/cc0000/ffffff,https://msu.edu,47.50883,19.080425
Wikizz,4.0,http://dummyimage.com/163x232.png/cc0000/ffffff,http://mozilla.com,47.506804,19.043098
Lajo,1.8,http://dummyimage.com/117x198.bmp/cc0000/ffffff,https://plala.or.jp,47.491626,19.022309
Skinder,2.4,http://dummyimage.com/153x221.png/cc0000/ffffff,http://narod.ru,47.49251,19.034321
Ozu,1.3,http://dummyimage.com/142x160.jpg/ff4444/ffffff,http://comsenz.com,47.488451,19.063426
Quinu,3.2,http://dummyimage.com/113x147.bmp/5fa2dd/ffffff,http://t-online.de,47.489061,19.026162
Yodo,2.2,http://dummyimage.com/189x115.jpg/dddddd/000000,http://ovh.net,47.48554,19.062008
Avavee,4.8,http://dummyimage.com/104x202.png/ff4444/ffffff,https://liveinternet.ru,47.508659,19.045671
Skaboo,1.4,http://dummyimage.com/151x215.jpg/ff4444/ffffff,http://princeton.edu,47.510201,19.048648
Eadel,4.5,http://dummyimage.com/143x200.jpg/ff4444/ffffff,https://unicef.org,47.510687,19.017047
Fliptune,4.1,http://dummyimage.com/242x231.jpg/ff4444/ffffff,https://flavors.me,47.490631,19.039853
Feedspan,4.9,http://dummyimage.com/235x135.bmp/ff4444/ffffff,https://epa.gov,47.509476,19.02212
Lajo,4.4,http://dummyimage.com/173x238.bmp/cc0000/ffffff,https://senate.gov,47.512648,19.037372
Thoughtworks,3.0,http://dummyimage.com/163x122.jpg/5fa2dd/ffffff,https://shinystat.com,47.491936,19.022429
Youtags,2.4,http://dummyimage.com/225x108.bmp/cc0000/ffffff,http://360.cn,47.511768,19.038365
BlogXS,1.4,http://dummyimage.com/212x170.bmp/5fa2dd/ffffff,https://state.gov,47.490927,19.076483
Oyoloo,2.0,http://dummyimage.com/169x205.bmp/ff4444/ffffff,http://wikimedia.org,47.490951,19.04208
Trunyx,1.6,http://dummyimage.com/188x102.png/5fa2dd/ffffff,http://soup.io,47.489269,19.057214
Oodoo,4.2,http://dummyimage.com/154x104.jpg/ff4444/ffffff,https://slate.com,47.510078,19.062656
Shuffletag,4.2,http://dummyimage.com/143x193.png/ff4444/ffffff,https://desdev.cn,47.490399,19.046867
Zava,4.6,http://dummyimage.com/168x249.bmp/ff4444/ffffff,http://t-online.de,47.491127,19.025404
Oyoba,2.1,http://dummyimage.com/123x153.jpg/5fa2dd/ffffff,http://blinklist.com,47.498165,19.021316
Jayo,4.0,http://dummyimage.com/222x196.jpg/ff4444/ffffff,https://typepad.com,47.50851,19.07777
Tanoodle,4.2,http://dummyimage.com/129x237.png/cc0000/ffffff,http://kickstarter.com,47.486345,19.018226
Kamba,1.4,http://dummyimage.com/147x228.bmp/cc0000/ffffff,http://msu.edu,47.47895,19.076615
Katz,1.5,http://dummyimage.com/166x195.bmp/5fa2dd/ffffff,http://wsj.com,47.49671,19.06201
Voomm,1.8,http://dummyimage.com/157x167.bmp/dddddd/000000,http://oaic.gov.au,47.513418,19.042861
Oozz,1.4,http://dummyimage.com/154x140.png/5fa2dd/ffffff,https://csmonitor.com,47.512486,19.052791
Skinix,4.6,http://dummyimage.com/112x127.png/dddddd/000000,http://zdnet.com,47.511581,19.0809
Avaveo,3.4,http://dummyimage.com/104x116.png/5fa2dd/ffffff,http://ihg.com,47.489333,19.05183
Devbug,1.9,http://dummyimage.com/245x202.bmp/5fa2dd/ffffff,https://symantec.com,47.503322,19.071419
Demimbu,2.6,http://dummyimage.com/168x153.png/5fa2dd/ffffff,http://twitter.com,47.481554,19.082673
Yakidoo,3.3,http://dummyimage.com/179x151.jpg/5fa2dd/ffffff,https://sciencedaily.com,47.499379,19.026892
Realcube,3.2,http://dummyimage.com/147x160.jpg/cc0000/ffffff,http://t.co,47.500428,19.058223
Jabbersphere,3.0,http://dummyimage.com/122x238.bmp/dddddd/000000,http://slate.com,47.493695,19.063432
Camimbo,4.7,http://dummyimage.com/215x100.bmp/cc0000/ffffff,http://ucoz.com,47.500573,19.022072
Browseblab,4.6,http://dummyimage.com/186x102.jpg/5fa2dd/ffffff,https://devhub.com,47.504367,19.0773
Mydeo,2.2,http://dummyimage.com/178x125.bmp/ff4444/ffffff,http://reddit.com,47.501556,19.067796
Youtags,4.0,http://dummyimage.com/225x217.bmp/ff4444/ffffff,https://ox.ac.uk,47.484576,19.059241
Jamia,1.5,http://dummyimage.com/229x174.png/cc0000/ffffff,https://cdc.gov,47.484656,19.058622
Omba,2.7,http://dummyimage.com/167x174.jpg/5fa2dd/ffffff,http://ed.gov,47.501272,19.061663
Fanoodle,4.7,http://dummyimage.com/121x178.bmp/dddddd/000000,http://google.co.jp,47.499409,19.060502
Ainyx,3.6,http://dummyimage.com/164x134.png/ff4444/ffffff,http://shinystat.com,47.513011,19.030223
Demimbu,1.0,http://dummyimage.com/197x112.jpg/ff4444/ffffff,http://ucoz.ru,47.510247,19.061137
Demivee,4.6,http://dummyimage.com/125x186.bmp/5fa2dd/ffffff,https://trellian.com,47.48541,19.074184
Skinte,4.9,http://dummyimage.com/248x144.bmp/cc0000/ffffff,http://flickr.com,47.494136,19.029645
Skinder,2.1,http://dummyimage.com/177x227.jpg/dddddd/000000,https://ovh.net,47.49109,19.037589
Aimbu,2.9,http://dummyimage.com/212x112.png/dddddd/000000,http://de.vu,47.512275,19.040152
Babblestorm,2.9,http://dummyimage.com/135x185.bmp/dddddd/000000,https://cbsnews.com,47.493704,19.073664
Vinte,1.1,http://dummyimage.com/189x194.jpg/ff4444/ffffff,http://wunderground.com,47.498586,19.030125
Voolia,2.0,http://dummyimage.com/231x244.bmp/ff4444/ffffff,http://vkontakte.ru,47.484961,19.018405
Oyoyo,3.3,http://dummyimage.com/140x191.png/dddddd/000000,https://biblegateway.com,47.507468,19.055541
Topicware,4.0,http://dummyimage.com/113x159.png/dddddd/000000,http://nasa.gov,47.478831,19.018427
Tazzy,4.1,http://dummyimage.com/212x159.bmp/cc0000/ffffff,https://accuweather.com,47.499676,19.055893
Realcube,4.7,http://dummyimage.com/151x118.jpg/dddddd/000000,https://auda.org.au,47.489157,19.05854
Voomm,1.5,http://dummyimage.com/225x108.bmp/ff4444/ffffff,http://examiner.com,47.508738,19.070569
Jetwire,2.1,http://dummyimage.com/230x168.jpg/5fa2dd/ffffff,http://businesswire.com,47.500258,19.048143
Agimba,1.5,http://dummyimage.com/137x116.bmp/5fa2dd/ffffff,https://ox.ac.uk,47.501086,19.081161
Roombo,2.7,http://dummyimage.com/233x171.png/5fa2dd/ffffff,https://topsy.com,47.502152,19.063324
Skynoodle,4.8,http://dummyimage.com/114x223.bmp/dddddd/000000,https://ustream.tv,47.490835,19.075644
Rhybox,3.5,http://dummyimage.com/238x246.jpg/ff4444/ffffff,http://ezinearticles.com,47.494858,19.031152
Feedspan,2.8,http://dummyimage.com/120x176.png/ff4444/ffffff,http://4shared.com,47.485076,19.043841
Topiclounge,4.8,http://dummyimage.com/145x157.png/dddddd/000000,http://nba.com,47.478929,19.072933
Oodoo,1.2,http://dummyimage.com/169x249.png/cc0000/ffffff,https://unblog.fr,47.49027,19.047368
Thoughtblab,1.1,http://dummyimage.com/169x154.jpg/5fa2dd/ffffff,https://google.com,47.512677,19.043205
Photobug,2.5,http://dummyimage.com/146x134.bmp/dddddd/000000,https://loc.gov,47.488347,19.054822
Fliptune,4.7,http://dummyimage.com/119x117.png/cc0000/ffffff,https://jimdo.com,47.512579,19.066222
Abata,2.9,http://dummyimage.com/221x137.jpg/ff4444/ffffff,http://cocolog-nifty.com,47.503002,19.040366
Oba,1.1,http://dummyimage.com/131x180.bmp/dddddd/000000,https://elpais.com,47.495911,19.058737
Shufflebeat,3.7,http://dummyimage.com/127x162.png/dddddd/000000,https://reddit.com,47.50873,19.067925
Twitterbridge,1.5,http://dummyimage.com/176x239.png/5fa2dd/ffffff,http://reuters.com,47.507387,19.066073
Shufflebeat,1.8,http://dummyimage.com/234x170.jpg/dddddd/000000,http://dailymotion.com,47.479868,19.023118
JumpXS,1.3,http://dummyimage.com/211x121.jpg/cc0000/ffffff,http://cornell.edu,47.480578,19.038837
Thoughtbeat,1.5,http://dummyimage.com/145x242.bmp/5fa2dd/ffffff,https://wikipedia.org,47.48488,19.022937
Wordtune,3.8,http://dummyimage.com/121x112.bmp/ff4444/ffffff,https://newsvine.com,47.504898,19.018922
Yamia,4.4,http://dummyimage.com/243x139.png/dddddd/000000,https://google.co.uk,47.486132,19.066765
Gabvine,2.8,http://dummyimage.com/129x147.png/dddddd/000000,https://princeton.edu,47.514015,19.045486
Buzzbean,2.2,http://dummyimage.com/214x239.jpg/dddddd/000000,http://yolasite.com,47.507426,19.062507
Thoughtworks,4.9,http://dummyimage.com/204x127.png/dddddd/000000,http://wikimedia.org,47.492737,19.026614
Voomm,1.1,http://dummyimage.com/152x243.png/5fa2dd/ffffff,http://rakuten.co.jp,47.500637,19.079986
Divape,4.6,http://dummyimage.com/123x151.bmp/cc0000/ffffff,http://ameblo.jp,47.494755,19.036312
Gigabox,4.5,http://dummyimage.com/246x170.jpg/5fa2dd/ffffff,http://angelfire.com,47.491505,19.029254
Blogtags,3.9,http://dummyimage.com/223x124.png/dddddd/000000,http://home.pl,47.503043,19.033029
Gabtype,3.5,http://dummyimage.com/121x139.png/5fa2dd/ffffff,http://theguardian.com,47.486726,19.046781
Fivespan,4.5,http://dummyimage.com/159x215.bmp/dddddd/000000,https://nih.gov,47.48197,19.060243
Fiveclub,3.7,http://dummyimage.com/168x196.png/ff4444/ffffff,http://1und1.de,47.482972,19.027189
Aimbu,4.1,http://dummyimage.com/218x203.bmp/ff4444/ffffff,http://hp.com,47.479969,19.063903
Youtags,4.6,http://dummyimage.com/201x242.jpg/ff4444/ffffff,https://yellowbook.com,47.508839,19.041893
Omba,3.1,http://dummyimage.com/213x164.png/5fa2dd/ffffff,https://furl.net,47.497669,19.055703
Jetwire,1.8,http://dummyimage.com/129x225.bmp/dddddd/000000,https://npr.org,47.501429,19.042367
Dynabox,3.2,http://dummyimage.com/198x132.png/dddddd/000000,http://europa.eu,47.492245,19.022293
Jaxworks,2.1,http://dummyimage.com/196x224.png/ff4444/ffffff,http://prnewswire.com,47.492335,19.064983
Yozio,4.5,http://dummyimage.com/155x161.png/cc0000/ffffff,http://drupal.org,47.480575,19.017389
Twiyo,3.1,http://dummyimage.com/116x170.bmp/cc0000/ffffff,https://example.com,47.481711,19.050833
Thoughtsphere,4.8,http://dummyimage.com/225x198.png/cc0000/ffffff,http://prnewswire.com,47.479557,19.052613
Bluezoom,2.6,http://dummyimage.com/182x163.jpg/ff4444/ffffff,http://edublogs.org,47.507411,19.056026
Meezzy,2.5,http://dummyimage.com/195x207.png/5fa2dd/ffffff,http://ted.com,47.512632,19.034982
Plajo,4.3,http://dummyimage.com/230x127.jpg/5fa2dd/ffffff,https://businessinsider.com,47.511546,19.02234
Kimia,1.4,http://dummyimage.com/199x103.jpg/dddddd/000000,http://japanpost.jp,47.485704,19.026143
Twitterbridge,4.2,http://dummyimage.com/200x244.bmp/dddddd/000000,https://icio.us,47.507358,19.062422
Gabtype,1.5,http://dummyimage.com/192x129.png/cc0000/ffffff,http://tamu.edu,47.508046,19.018732
Skyble,1.7,http://dummyimage.com/200x177.bmp/cc0000/ffffff,https://washingtonpost.com,47.483608,19.042015
Twitterlist,3.3,http://dummyimage.com/233x121.png/dddddd/000000,http://auda.org.au,47.482534,19.031769
Yabox,2.6,http://dummyimage.com/203x135.jpg/ff4444/ffffff,https://google.com.au,47.487434,19.058242
Quire,2.4,http://dummyimage.com/238x237.bmp/dddddd/000000,https://hibu.com,47.51089,19.069429
Centizu,3.8,http://dummyimage.com/155x235.bmp/5fa2dd/ffffff,http://si.edu,47.483255,19.053678
Leexo,3.2,http://dummyimage.com/108x224.png/5fa2dd/ffffff,https://live.com,47.505182,19.017488
Plambee,4.1,http://dummyimage.com/238x227.bmp/5fa2dd/ffffff,https://admin.ch,47.491018,19.028033
Brightbean,3.9,http://dummyimage.com/219x177.bmp/ff4444/ffffff,http://kickstarter.com,47.489144,19.078934
Lazz,1.8,http://dummyimage.com/225x250.jpg/dddddd/000000,https://epa.gov,47.484651,19.069768
Brainlounge,4.1,http://dummyimage.com/126x221.bmp/dddddd/000000,https://ihg.com,47.48214,19.043765
Feedbug,1.5,http://dummyimage.com/141x197.png/ff4444/ffffff,http://ucoz.com,47.499398,19.052132
Yombu,4.0,http://dummyimage.com/161x203.jpg/cc0000/ffffff,https://yale.edu,47.507671,19.029063
Vidoo,4.1,http://dummyimage.com/151x233.jpg/cc0000/ffffff,http://wufoo.com,47.492499,19.065671
Realbridge,2.7,http://dummyimage.com/172x183.jpg/ff4444/ffffff,https://fotki.com,47.498286,19.043871
Brainbox,1.6,http://dummyimage.com/159x159.jpg/cc0000/ffffff,https://cbsnews.com,47.49738,19.018294
Realpoint,1.1,http://dummyimage.com/156x164.bmp/5fa2dd/ffffff,http://furl.net,47.49446,19.062016
Edgeclub,3.1,http://dummyimage.com/199x224.jpg/ff4444/ffffff,http://deviantart.com,47.490583,19.039964
Zoombox,1.5,http://dummyimage.com/234x190.png/dddddd/000000,https://wsj.com,47.496913,19.03898
Talane,4.2,http://dummyimage.com/189x169.bmp/dddddd/000000,https://auda.org.au,47.486698,19.064815
Izio,1.7,http://dummyimage.com/222x149.png/ff4444/ffffff,http://oaic.gov.au,47.488302,19.046914
Skimia,2.9,http://dummyimage.com/144x115.jpg/5fa2dd/ffffff,http://nba.com,47.48373,19.080371
Feedmix,4.5,http://dummyimage.com/169x167.png/cc0000/ffffff,http://desdev.cn,47.51224,19.024979
Eare,1.3,http://dummyimage.com/125x146.bmp/cc0000/ffffff,http://umn.edu,47.499187,19.05901
Browsezoom,1.1,http://dummyimage.com/205x234.png/ff4444/ffffff,https://i2i.jp,47.494009,19.033734
Rhybox,3.3,http://dummyimage.com/117x136.png/dddddd/000000,http://vinaora.com,47.485388,19.014208
Wordpedia,4.7,http://dummyimage.com/246x237.png/5fa2dd/ffffff,http://sphinn.com,47.50767,19.037818
Rhybox,3.1,http://dummyimage.com/206x206.jpg/5fa2dd/ffffff,https://qq.com,47.491248,19.019216
Skimia,1.4,http://dummyimage.com/213x212.png/dddddd/000000,https://home.pl,47.480541,19.021925
Yodo,2.5,http://dummyimage.com/184x172.bmp/dddddd/000000,http://abc.net.au,47.508291,19.080267
Jabberstorm,2.6,http://dummyimage.com/187x148.png/dddddd/000000,http://sogou.com,47.511587,19.038789
Yamia,1.3,http://dummyimage.com/172x210.png/dddddd/000000,http://typepad.com,47.489679,19.063471
Jabberstorm,1.2,http://dummyimage.com/167x229.jpg/ff4444/ffffff,http://seattletimes.com,47.50414,19.027073
Wikizz,1.5,http://dummyimage.com/240x193.bmp/cc0000/ffffff,https://yandex.ru,47.489832,19.031093
Yacero,2.3,http://dummyimage.com/180x176.bmp/5fa2dd/ffffff,https://shareasale.com,47.491712,19.078542
Demivee,4.6,http://dummyimage.com/250x114.bmp/dddddd/000000,http://nyu.edu,47.508029,19.061226
Photolist,3.7,http://dummyimage.com/174x189.bmp/cc0000/ffffff,http://theatlantic.com,47.503731,19.056992
Trilith,3.0,http://dummyimage.com/203x247.jpg/dddddd/000000,https://sfgate.com,47.48472,19.023372
Wordware,2.2,http://dummyimage.com/133x168.png/dddddd/000000,https://elegantthemes.com,47.491976,19.033697
Katz,2.2,http://dummyimage.com/113x172.jpg/dddddd/000000,https://ning.com,47.480445,19.038757
Brightbean,1.2,http://dummyimage.com/102x100.bmp/5fa2dd/ffffff,https://google.nl,47.513875,19.073562
Fatz,2.2,http://dummyimage.com/228x119.bmp/5fa2dd/ffffff,http://4shared.com,47.50757,19.016931
Skinix,3.7,http://dummyimage.com/182x189.bmp/cc0000/ffffff,http://howstuffworks.com,47.482499,19.056816
Feedbug,1.1,http://dummyimage.com/213x131.png/5fa2dd/ffffff,https://cbsnews.com,47.496805,19.025322
Flashspan,2.6,http://dummyimage.com/190x180.bmp/dddddd/000000,https://ifeng.com,47.51204,19.046007
Browsecat,4.0,http://dummyimage.com/201x167.png/dddddd/000000,http://wiley.com,47.512577,19.064818
Meemm,2.5,http://dummyimage.com/215x207.bmp/cc0000/ffffff,http://google.com.au,47.501409,19.045824
Oyoyo,3.5,http://dummyimage.com/194x169.png/ff4444/ffffff,http://latimes.com,47.513072,19.058827
Yakitri,4.4,http://dummyimage.com/112x214.bmp/cc0000/ffffff,http://msu.edu,47.494212,19.079751
Bubblebox,3.7,http://dummyimage.com/100x106.bmp/cc0000/ffffff,http://sciencedirect.com,47.496772,19.077844
Skibox,1.7,http://dummyimage.com/248x100.bmp/5fa2dd/ffffff,http://walmart.com,47.482723,19.047417
Dynazzy,3.5,http://dummyimage.com/171x167.bmp/dddddd/000000,https://baidu.com,47.500899,19.062934
Einti,2.4,http://dummyimage.com/226x231.bmp/cc0000/ffffff,http://epa.gov,47.49976,19.033397
Shuffletag,2.7,http://dummyimage.com/181x206.jpg/5fa2dd/ffffff,https://apache.org,47.492016,19.076134
Tagtune,4.9,http://dummyimage.com/107x159.bmp/dddddd/000000,http://reuters.com,47.501786,19.02934
Dabtype,1.0,http://dummyimage.com/222x244.jpg/5fa2dd/ffffff,https://ox.ac.uk,47.480414,19.055417
Skimia,4.2,http://dummyimage.com/202x221.bmp/cc0000/ffffff,http://odnoklassniki.ru,47.47888,19.0571
Riffpedia,1.0,http://dummyimage.com/181x199.png/cc0000/ffffff,http://dagondesign.com,47.496301,19.044435
Jabbersphere,1.1,http://dummyimage.com/189x221.bmp/cc0000/ffffff,https://hao123.com,47.502812,19.028302
Topicstorm,2.3,http://dummyimage.com/152x186.bmp/ff4444/ffffff,https://si.edu,47.498732,19.030803
Bluezoom,2.3,http://dummyimage.com/219x153.jpg/cc0000/ffffff,http://cocolog-nifty.com,47.483885,19.01993
Roodel,2.6,http://dummyimage.com/240x136.bmp/dddddd/000000,http://eepurl.com,47.488574,19.014515
Innojam,5.0,http://dummyimage.com/171x198.jpg/dddddd/000000,https://amazon.co.jp,47.512922,19.029514
Thoughtbeat,4.4,http://dummyimage.com/233x195.bmp/cc0000/ffffff,http://studiopress.com,47.504596,19.031919
Shuffletag,1.7,http://dummyimage.com/159x243.bmp/dddddd/000000,http://booking.com,47.513969,19.019283
Myworks,2.4,http://dummyimage.com/113x234.bmp/ff4444/ffffff,http://admin.ch,47.507672,19.048313
Youspan,2.3,http://dummyimage.com/235x172.jpg/5fa2dd/ffffff,http://craigslist.org,47.508629,19.075878
Wikivu,2.2,http://dummyimage.com/228x230.png/ff4444/ffffff,http://guardian.co.uk,47.502542,19.028616
Dynabox,4.3,http://dummyimage.com/163x193.png/5fa2dd/ffffff,http://admin.ch,47.503032,19.051328
Aimbu,4.9,http://dummyimage.com/159x149.png/dddddd/000000,https://oakley.com,47.510158,19.071386
Lazzy,4.7,http://dummyimage.com/179x200.png/dddddd/000000,http://sphinn.com,47.491228,19.030854
Jatri,2.0,http://dummyimage.com/201x219.png/dddddd/000000,http://wordpress.com,47.500324,19.035108
Demizz,3.2,http://dummyimage.com/183x223.bmp/dddddd/000000,https://aol.com,47.505344,19.063078
Rhynoodle,4.6,http://dummyimage.com/158x123.jpg/dddddd/000000,http://fc2.com,47.509412,19.013816
Meeveo,1.4,http://dummyimage.com/160x119.jpg/ff4444/ffffff,https://loc.gov,47.492318,19.052386
Eayo,3.0,http://dummyimage.com/125x196.png/5fa2dd/ffffff,https://usatoday.com,47.489127,19.025988
Skyvu,2.1,http://dummyimage.com/128x239.bmp/5fa2dd/ffffff,http://squarespace.com,47.510057,19.0773
Tagtune,4.8,http://dummyimage.com/248x228.jpg/ff4444/ffffff,https://ucsd.edu,47.5003,19.052754
Mudo,2.0,http://dummyimage.com/131x174.png/ff4444/ffffff,https://yandex.ru,47.48419,19.026086
BlogXS,2.5,http://dummyimage.com/132x119.png/dddddd/000000,http://google.pl,47.512239,19.037328
Skivee,3.9,http://dummyimage.com/222x111.jpg/cc0000/ffffff,http://ucsd.edu,47.498993,19.059242
Realbridge,4.5,http://dummyimage.com/189x160.png/dddddd/000000,http://about.me,47.492352,19.017398
Demizz,1.3,http://dummyimage.com/177x213.bmp/dddddd/000000,https://joomla.org,47.508072,19.020388
Dabfeed,2.2,http://dummyimage.com/207x227.jpg/ff4444/ffffff,http://mashable.com,47.486896,19.025348
Tagcat,2.0,http://dummyimage.com/229x207.png/ff4444/ffffff,http://google.co.uk,47.51313,19.038888
Tazzy,3.9,http://dummyimage.com/159x113.bmp/ff4444/ffffff,https://berkeley.edu,47.497532,19.052182
Podcat,3.5,http://dummyimage.com/206x137.jpg/5fa2dd/ffffff,http://phpbb.com,47.502562,19.049834
Einti,2.1,http://dummyimage.com/214x216.bmp/dddddd/000000,http://dailymail.co.uk,47.49279,19.060711
Trilith,2.8,http://dummyimage.com/201x122.bmp/ff4444/ffffff,https://wunderground.com,47.511013,19.01751
Youbridge,4.4,http://dummyimage.com/220x167.jpg/5fa2dd/ffffff,https://dmoz.org,47.480415,19.079301
Lazz,1.4,http://dummyimage.com/129x192.jpg/cc0000/ffffff,http://chicagotribune.com,47.49662,19.055955
Skaboo,3.5,http://dummyimage.com/124x245.bmp/cc0000/ffffff,https://howstuffworks.com,47.506725,19.055632
Meevee,1.3,http://dummyimage.com/217x227.jpg/5fa2dd/ffffff,https://ted.com,47.513509,19.025705
Devcast,2.1,http://dummyimage.com/243x162.jpg/cc0000/ffffff,http://purevolume.com,47.492624,19.020013
Yozio,4.4,http://dummyimage.com/210x241.png/dddddd/000000,http://bbb.org,47.500733,19.021761
Feedspan,2.4,http://dummyimage.com/165x220.jpg/dddddd/000000,https://nhs.uk,47.499471,19.018716
Kazio,4.7,http://dummyimage.com/111x125.bmp/5fa2dd/ffffff,https://t-online.de,47.489213,19.059176
Mita,4.3,http://dummyimage.com/174x134.png/5fa2dd/ffffff,https://slideshare.net,47.502959,19.050882
Twitterbeat,2.1,http://dummyimage.com/236x147.bmp/dddddd/000000,http://odnoklassniki.ru,47.501134,19.066969
Fanoodle,2.5,http://dummyimage.com/248x229.jpg/ff4444/ffffff,http://jugem.jp,47.492306,19.034163
Skinte,2.5,http://dummyimage.com/167x117.jpg/5fa2dd/ffffff,http://feedburner.com,47.510586,19.048236
Kwilith,2.4,http://dummyimage.com/214x247.jpg/dddddd/000000,http://stanford.edu,47.485788,19.026103
Linklinks,2.7,http://dummyimage.com/236x160.jpg/dddddd/000000,http://newyorker.com,47.48296,19.05346
Topicware,1.6,http://dummyimage.com/218x101.png/ff4444/ffffff,https://digg.com,47.492199,19.024426
Edgeify,1.2,http://dummyimage.com/128x127.jpg/cc0000/ffffff,http://drupal.org,47.490962,19.038852
Zoomzone,2.5,http://dummyimage.com/223x105.bmp/ff4444/ffffff,https://adobe.com,47.498814,19.016302
InnoZ,2.8,http://dummyimage.com/237x202.jpg/dddddd/000000,http://hexun.com,47.487615,19.034841
Reallinks,2.1,http://dummyimage.com/102x198.jpg/dddddd/000000,http://techcrunch.com,47.507422,19.066147
Lazz,1.9,http://dummyimage.com/153x140.jpg/ff4444/ffffff,https://scientificamerican.com,47.493791,19.068902
Voolia,2.3,http://dummyimage.com/216x233.jpg/ff4444/ffffff,http://constantcontact.com,47.496058,19.022109
Mymm,2.2,http://dummyimage.com/246x124.png/cc0000/ffffff,https://theguardian.com,47.485975,19.023811
Feedmix,1.3,http://dummyimage.com/118x136.png/cc0000/ffffff,http://illinois.edu,47.513749,19.075431
Blogtag,4.4,http://dummyimage.com/106x201.bmp/cc0000/ffffff,https://hc360.com,47.509169,19.018417
Realbridge,4.5,http://dummyimage.com/220x135.bmp/dddddd/000000,https://foxnews.com,47.489809,19.058515
Brainbox,1.5,http://dummyimage.com/111x234.bmp/dddddd/000000,https://skyrock.com,47.48724,19.057984
Midel,3.6,http://dummyimage.com/136x228.bmp/5fa2dd/ffffff,https://infoseek.co.jp,47.492124,19.066732
Yakidoo,4.5,http://dummyimage.com/194x115.jpg/5fa2dd/ffffff,http://smugmug.com,47.496214,19.019898
Realpoint,4.5,http://dummyimage.com/165x226.jpg/ff4444/ffffff,http://nationalgeographic.com,47.501226,19.0481
Gabtype,4.4,http://dummyimage.com/208x238.bmp/dddddd/000000,http://goo.ne.jp,47.506902,19.056091
Pixope,1.1,http://dummyimage.com/106x123.png/ff4444/ffffff,https://kickstarter.com,47.495236,19.068939
Roombo,3.6,http://dummyimage.com/144x204.bmp/ff4444/ffffff,http://shareasale.com,47.50353,19.031016
Brainbox,2.6,http://dummyimage.com/233x188.bmp/dddddd/000000,https://devhub.com,47.484891,19.02581
Yodo,1.2,http://dummyimage.com/240x182.jpg/ff4444/ffffff,http://oaic.gov.au,47.50243,19.074744
Quire,1.6,http://dummyimage.com/232x220.bmp/dddddd/000000,http://barnesandnoble.com,47.496792,19.018539
Skiba,2.2,http://dummyimage.com/198x167.bmp/cc0000/ffffff,https://mlb.com,47.496227,19.07298
Voonte,4.0,http://dummyimage.com/221x246.bmp/ff4444/ffffff,https://noaa.gov,47.496346,19.079563
Skinte,2.2,http://dummyimage.com/175x129.jpg/5fa2dd/ffffff,http://xinhuanet.com,47.511885,19.016154
Photobean,1.5,http://dummyimage.com/185x185.png/cc0000/ffffff,http://prweb.com,47.503861,19.060747
Yotz,3.6,http://dummyimage.com/188x214.jpg/dddddd/000000,https://livejournal.com,47.488192,19.037519
BlogXS,3.9,http://dummyimage.com/195x248.bmp/cc0000/ffffff,http://cdc.gov,47.50876,19.046978
Feedfire,4.8,http://dummyimage.com/214x232.png/ff4444/ffffff,http://cdbaby.com,47.498845,19.068911
Skibox,1.6,http://dummyimage.com/249x171.png/dddddd/000000,http://networksolutions.com,47.499329,19.040993
Buzzbean,3.2,http://dummyimage.com/221x200.bmp/ff4444/ffffff,http://sogou.com,47.511411,19.078032
Thoughtmix,1.1,http://dummyimage.com/116x151.bmp/5fa2dd/ffffff,http://hao123.com,47.494061,19.016639
Wikizz,4.4,http://dummyimage.com/232x242.jpg/5fa2dd/ffffff,http://hc360.com,47.497911,19.024188
Skipfire,1.6,http://dummyimage.com/153x126.png/5fa2dd/ffffff,http://sourceforge.net,47.497274,19.076271
Wordtune,1.6,http://dummyimage.com/207x138.jpg/ff4444/ffffff,https://theatlantic.com,47.502794,19.023234
Minyx,2.1,http://dummyimage.com/108x103.bmp/ff4444/ffffff,https://bloglines.com,47.479819,19.064095
Ainyx,4.5,http://dummyimage.com/100x175.jpg/dddddd/000000,https://boston.com,47.485025,19.080669
Shufflester,4.1,http://dummyimage.com/192x140.png/cc0000/ffffff,http://mayoclinic.com,47.507549,19.078845
Browseblab,1.8,http://dummyimage.com/192x127.png/dddddd/000000,http://gizmodo.com,47.509388,19.035173
Feedspan,3.5,http://dummyimage.com/156x124.jpg/5fa2dd/ffffff,http://ibm.com,47.482539,19.04048
Skibox,1.0,http://dummyimage.com/175x135.jpg/cc0000/ffffff,http://cam.ac.uk,47.478906,19.015017
Youspan,1.8,http://dummyimage.com/170x184.png/cc0000/ffffff,http://shutterfly.com,47.496057,19.03053
Skyndu,1.2,http://dummyimage.com/175x129.png/ff4444/ffffff,https://themeforest.net,47.506299,19.022118
Kanoodle,1.9,http://dummyimage.com/181x238.png/ff4444/ffffff,http://odnoklassniki.ru,47.483789,19.041809
Oloo,3.2,http://dummyimage.com/127x107.bmp/5fa2dd/ffffff,http://samsung.com,47.48143,19.042839
Linkbridge,2.6,http://dummyimage.com/169x223.bmp/5fa2dd/ffffff,http://yelp.com,47.488271,19.041219
Eare,4.3,http://dummyimage.com/132x118.bmp/ff4444/ffffff,https://squidoo.com,47.492244,19.056294
Youopia,3.5,http://dummyimage.com/126x173.bmp/ff4444/ffffff,https://craigslist.org,47.503887,19.023302
Fadeo,1.8,http://dummyimage.com/195x241.jpg/cc0000/ffffff,http://free.fr,47.479742,19.014945
Topicstorm,4.4,http://dummyimage.com/109x177.png/cc0000/ffffff,https://typepad.com,47.491219,19.081283
Browsedrive,4.4,http://dummyimage.com/243x102.bmp/ff4444/ffffff,https://microsoft.com,47.503315,19.024054
Skajo,3.1,http://dummyimage.com/156x164.jpg/cc0000/ffffff,https://ebay.co.uk,47.511887,19.03557
Tazzy,2.8,http://dummyimage.com/147x226.png/dddddd/000000,https://g.co,47.488756,19.0805
Brightdog,4.8,http://dummyimage.com/175x108.jpg/ff4444/ffffff,https://bluehost.com,47.479581,19.02046
Gabvine,4.8,http://dummyimage.com/138x145.bmp/ff4444/ffffff,http://sakura.ne.jp,47.498272,19.04549
Yabox,3.1,http://dummyimage.com/233x154.png/dddddd/000000,https://kickstarter.com,47.485425,19.020981
Meembee,1.0,http://dummyimage.com/144x133.bmp/5fa2dd/ffffff,https://samsung.com,47.506311,19.077758
Jetpulse,1.5,http://dummyimage.com/244x182.png/ff4444/ffffff,http://rakuten.co.jp,47.511673,19.033987
Dablist,3.5,http://dummyimage.com/135x237.bmp/ff4444/ffffff,https://is.gd,47.512003,19.068125
Meedoo,4.4,http://dummyimage.com/239x128.jpg/dddddd/000000,http://g.co,47.493805,19.015288
Rhynoodle,3.8,http://dummyimage.com/123x143.jpg/cc0000/ffffff,https://gizmodo.com,47.5136,19.037028
Voonte,1.2,http://dummyimage.com/184x195.jpg/5fa2dd/ffffff,https://lycos.com,47.503582,19.036284
Thoughtmix,2.9,http://dummyimage.com/135x217.png/ff4444/ffffff,http://huffingtonpost.com,47.494925,19.049241
Zazio,3.2,http://dummyimage.com/166x157.jpg/ff4444/ffffff,https://chicagotribune.com,47.502063,19.01697
Tazzy,4.8,http://dummyimage.com/179x212.bmp/dddddd/000000,https://globo.com,47.484547,19.040627
Twitterworks,3.8,http://dummyimage.com/119x121.bmp/cc0000/ffffff,https://lycos.com,47.507406,19.016967
Flashpoint,1.2,http://dummyimage.com/183x183.bmp/ff4444/ffffff,https://dell.com,47.481559,19.01623
Wikivu,3.1,http://dummyimage.com/131x147.jpg/ff4444/ffffff,http://dailymail.co.uk,47.513802,19.075182
Meembee,3.8,http://dummyimage.com/219x155.jpg/cc0000/ffffff,https://rakuten.co.jp,47.50396,19.068378
Nlounge,3.6,http://dummyimage.com/119x126.jpg/5fa2dd/ffffff,https://bbb.org,47.511236,19.07839
Eidel,1.4,http://dummyimage.com/249x188.bmp/5fa2dd/ffffff,http://weibo.com,47.488992,19.037235
Jabbersphere,4.3,http://dummyimage.com/214x228.jpg/5fa2dd/ffffff,https://nationalgeographic.com,47.483774,19.060679
Pixope,2.2,http://dummyimage.com/187x242.png/cc0000/ffffff,http://seattletimes.com,47.484327,19.078555
Yata,4.3,http://dummyimage.com/111x202.bmp/ff4444/ffffff,https://163.com,47.494874,19.080473
Thoughtblab,1.0,http://dummyimage.com/150x213.bmp/cc0000/ffffff,https://adobe.com,47.506015,19.036091
Youspan,1.4,http://dummyimage.com/204x134.jpg/dddddd/000000,http://usnews.com,47.481552,19.022203
Eabox,4.3,http://dummyimage.com/235x192.png/ff4444/ffffff,http://who.int,47.483779,19.040161
Photobug,1.6,http://dummyimage.com/131x136.jpg/ff4444/ffffff,http://istockphoto.com,47.483739,19.042973
Meembee,2.4,http://dummyimage.com/195x224.jpg/dddddd/000000,https://nydailynews.com,47.500624,19.081543
Bluezoom,4.0,http://dummyimage.com/186x168.jpg/5fa2dd/ffffff,https://creativecommons.org,47.508158,19.043811
Vinte,4.2,http://dummyimage.com/157x112.png/ff4444/ffffff,http://plala.or.jp,47.499264,19.078913
Jaxnation,3.9,http://dummyimage.com/207x169.bmp/dddddd/000000,http://biglobe.ne.jp,47.493443,19.017289
Trunyx,2.5,http://dummyimage.com/219x167.bmp/cc0000/ffffff,http://mlb.com,47.495802,19.015108
Skinix,2.5,http://dummyimage.com/205x248.bmp/ff4444/ffffff,https://pcworld.com,47.506076,19.017915
Thoughtworks,4.1,http://dummyimage.com/238x137.png/5fa2dd/ffffff,https://nymag.com,47.484531,19.056371
Trilith,2.5,http://dummyimage.com/211x204.bmp/5fa2dd/ffffff,http://angelfire.com,47.498728,19.076308
Zooxo,1.7,http://dummyimage.com/210x158.jpg/cc0000/ffffff,http://nature.com,47.487656,19.067202
Gigazoom,3.3,http://dummyimage.com/185x211.bmp/ff4444/ffffff,http://whitehouse.gov,47.510287,19.08102
Brainbox,2.4,http://dummyimage.com/160x102.bmp/dddddd/000000,https://cbsnews.com,47.506388,19.027598
Quatz,3.2,http://dummyimage.com/157x226.jpg/dddddd/000000,http://technorati.com,47.502856,19.066915
Skimia,2.2,http://dummyimage.com/113x132.jpg/ff4444/ffffff,http://reverbnation.com,47.496265,19.021075
Babbleopia,4.8,http://dummyimage.com/109x163.png/ff4444/ffffff,http://1und1.de,47.484647,19.070728
Quinu,4.8,http://dummyimage.com/221x107.bmp/5fa2dd/ffffff,https://woothemes.com,47.485135,19.075267
Meedoo,3.1,http://dummyimage.com/193x200.bmp/5fa2dd/ffffff,http://wordpress.org,47.505711,19.034541
Izio,1.6,http://dummyimage.com/153x215.png/ff4444/ffffff,https://huffingtonpost.com,47.478976,19.06284
Bubbletube,1.0,http://dummyimage.com/124x217.png/cc0000/ffffff,https://lycos.com,47.489628,19.067646
Trupe,3.0,http://dummyimage.com/128x212.bmp/cc0000/ffffff,http://mozilla.com,47.500894,19.061851
Dabjam,2.3,http://dummyimage.com/126x138.bmp/ff4444/ffffff,http://rakuten.co.jp,47.480396,19.020315
Mita,4.3,http://dummyimage.com/213x226.bmp/dddddd/000000,https://soundcloud.com,47.507816,19.036686
Meeveo,2.1,http://dummyimage.com/174x140.jpg/dddddd/000000,https://independent.co.uk,47.504259,19.071995
Tagcat,3.0,http://dummyimage.com/134x231.png/dddddd/000000,http://toplist.cz,47.49898,19.041945
Gabtype,4.1,http://dummyimage.com/137x188.jpg/5fa2dd/ffffff,https://stanford.edu,47.493405,19.058693
Realmix,4.3,http://dummyimage.com/138x247.png/cc0000/ffffff,http://amazon.co.jp,47.513848,19.026929
Dynazzy,2.7,http://dummyimage.com/245x212.png/cc0000/ffffff,http://addtoany.com,47.494301,19.07924
Flipopia,3.9,http://dummyimage.com/148x181.bmp/ff4444/ffffff,https://engadget.com,47.489573,19.036881
Wikido,2.6,http://dummyimage.com/230x227.bmp/cc0000/ffffff,https://kickstarter.com,47.492243,19.044982
Photofeed,2.8,http://dummyimage.com/134x159.png/dddddd/000000,https://hatena.ne.jp,47.497256,19.050644
Trudoo,4.4,http://dummyimage.com/175x210.png/ff4444/ffffff,http://ucsd.edu,47.491802,19.079944
Aibox,3.5,http://dummyimage.com/219x120.png/ff4444/ffffff,http://deviantart.com,47.496814,19.029101
Wikivu,1.8,http://dummyimage.com/190x120.jpg/ff4444/ffffff,http://blog.com,47.492648,19.036266
Blogtags,2.8,http://dummyimage.com/115x241.bmp/cc0000/ffffff,https://addthis.com,47.502117,19.015112
Myworks,2.1,http://dummyimage.com/143x123.png/dddddd/000000,http://purevolume.com,47.498457,19.081953
Leenti,4.5,http://dummyimage.com/121x207.png/ff4444/ffffff,http://cnbc.com,47.484198,19.044228
Roomm,2.7,http://dummyimage.com/128x212.jpg/5fa2dd/ffffff,http://icio.us,47.511215,19.047911
Kazio,4.3,http://dummyimage.com/187x189.png/ff4444/ffffff,https://ycombinator.com,47.497862,19.055687
Fivebridge,3.1,http://dummyimage.com/145x241.jpg/5fa2dd/ffffff,https://marketwatch.com,47.491927,19.066471
Babbleblab,4.0,http://dummyimage.com/206x101.jpg/5fa2dd/ffffff,http://fastcompany.com,47.499685,19.041827
Eire,1.9,http://dummyimage.com/116x120.bmp/dddddd/000000,http://blogs.com,47.498078,19.075498
Muxo,3.4,http://dummyimage.com/100x115.jpg/5fa2dd/ffffff,http://huffingtonpost.com,47.502039,19.061771
Youfeed,2.4,http://dummyimage.com/115x118.bmp/ff4444/ffffff,http://google.com.br,47.510937,19.073665
Zazio,4.2,http://dummyimage.com/185x118.jpg/cc0000/ffffff,http://businesswire.com,47.484602,19.035739
Tekfly,2.6,http://dummyimage.com/199x174.jpg/cc0000/ffffff,http://fotki.com,47.48981,19.078468
Blogpad,3.7,http://dummyimage.com/116x154.bmp/cc0000/ffffff,https://google.nl,47.510128,19.020666
Zoomcast,4.2,http://dummyimage.com/229x228.jpg/cc0000/ffffff,http://opensource.org,47.499818,19.047569
Topicshots,2.3,http://dummyimage.com/200x166.jpg/5fa2dd/ffffff,http://imageshack.us,47.481469,19.058101
Livetube,2.3,http://dummyimage.com/154x175.png/cc0000/ffffff,http://princeton.edu,47.492939,19.046122
Bluezoom,2.1,http://dummyimage.com/188x164.jpg/cc0000/ffffff,https://gravatar.com,47.50986,19.055673
Photolist,1.4,http://dummyimage.com/193x180.png/cc0000/ffffff,http://hugedomains.com,47.485049,19.025535
DabZ,1.6,http://dummyimage.com/216x178.bmp/dddddd/000000,https://issuu.com,47.492062,19.070105
Skidoo,2.2,http://dummyimage.com/109x247.png/dddddd/000000,https://amazon.de,47.480856,19.016546
Quinu,4.7,http://dummyimage.com/244x178.jpg/cc0000/ffffff,http://com.com,47.50185,19.080896
Quimm,2.0,http://dummyimage.com/201x250.png/dddddd/000000,https://wikimedia.org,47.507745,19.075592
Edgepulse,3.8,http://dummyimage.com/225x130.bmp/ff4444/ffffff,http://redcross.org,47.49983,19.032084
Twitternation,1.6,http://dummyimage.com/207x133.bmp/5fa2dd/ffffff,http://ed.gov,47.493566,19.057663
Realblab,2.4,http://dummyimage.com/123x155.jpg/ff4444/ffffff,https://seesaa.net,47.478909,19.014867
Muxo,4.1,http://dummyimage.com/135x213.jpg/cc0000/ffffff,https://w3.org,47.48282,19.062214
Eazzy,4.3,http://dummyimage.com/124x193.bmp/dddddd/000000,https://newyorker.com,47.513069,19.015278
Aimbu,4.7,http://dummyimage.com/208x220.png/5fa2dd/ffffff,http://wordpress.com,47.50832,19.027202
Yoveo,4.8,http://dummyimage.com/158x192.jpg/ff4444/ffffff,http://apple.com,47.492388,19.054254
Meembee,3.7,http://dummyimage.com/207x136.bmp/ff4444/ffffff,http://theatlantic.com,47.482579,19.049013
Aibox,3.5,http://dummyimage.com/181x105.jpg/cc0000/ffffff,https://topsy.com,47.500279,19.072507
Edgepulse,4.5,http://dummyimage.com/168x153.jpg/cc0000/ffffff,https://barnesandnoble.com,47.488668,19.05899
Divape,4.2,http://dummyimage.com/196x189.jpg/ff4444/ffffff,https://oakley.com,47.485672,19.025863
Feedmix,2.5,http://dummyimage.com/161x202.jpg/5fa2dd/ffffff,http://aol.com,47.487327,19.055184
Yamia,4.2,http://dummyimage.com/125x109.png/ff4444/ffffff,https://amazon.co.jp,47.483827,19.015959
Tagcat,1.8,http://dummyimage.com/200x177.bmp/cc0000/ffffff,http://macromedia.com,47.482605,19.057662
Devpulse,1.6,http://dummyimage.com/125x128.bmp/5fa2dd/ffffff,http://theatlantic.com,47.503214,19.042654
Feedbug,1.2,http://dummyimage.com/172x162.jpg/dddddd/000000,https://sakura.ne.jp,47.510462,19.031913
Yotz,3.9,http://dummyimage.com/244x119.png/cc0000/ffffff,http://ovh.net,47.486933,19.041628
Centidel,3.8,http://dummyimage.com/220x181.bmp/cc0000/ffffff,https://xinhuanet.com,47.486056,19.059262
Eabox,1.6,http://dummyimage.com/114x186.jpg/5fa2dd/ffffff,https://senate.gov,47.502812,19.067829
Voonte,2.7,http://dummyimage.com/184x230.png/ff4444/ffffff,https://bravesites.com,47.506435,19.044027
Oyoyo,3.8,http://dummyimage.com/141x139.png/dddddd/000000,http://nymag.com,47.509851,19.059351
Jayo,2.6,http://dummyimage.com/190x144.png/cc0000/ffffff,https://loc.gov,47.479029,19.071494
JumpXS,2.8,http://dummyimage.com/120x182.jpg/cc0000/ffffff,http://google.co.jp,47.486449,19.060871
BlogXS,4.1,http://dummyimage.com/134x244.png/5fa2dd/ffffff,https://ezinearticles.com,47.508328,19.068801
Mudo,2.5,http://dummyimage.com/167x167.png/cc0000/ffffff,http://toplist.cz,47.497211,19.036365
Wordware,2.0,http://dummyimage.com/103x154.png/cc0000/ffffff,https://bluehost.com,47.485164,19.068152
Dabjam,2.0,http://dummyimage.com/182x228.bmp/ff4444/ffffff,https://histats.com,47.492616,19.072225
Dynabox,5.0,http://dummyimage.com/108x189.png/ff4444/ffffff,http://cnbc.com,47.506874,19.056048
Photobug,4.0,http://dummyimage.com/165x158.bmp/cc0000/ffffff,https://infoseek.co.jp,47.479577,19.039869
Shufflebeat,1.5,http://dummyimage.com/246x145.png/ff4444/ffffff,https://weibo.com,47.495565,19.018711
Demizz,4.2,http://dummyimage.com/126x164.bmp/cc0000/ffffff,http://facebook.com,47.484918,19.026014
Buzzshare,2.8,http://dummyimage.com/228x198.png/ff4444/ffffff,http://nydailynews.com,47.490538,19.078249
Bluejam,1.4,http://dummyimage.com/243x183.bmp/dddddd/000000,https://ted.com,47.479578,19.026557
Fliptune,4.0,http://dummyimage.com/167x128.bmp/dddddd/000000,http://howstuffworks.com,47.510392,19.031455
Flashdog,2.4,http://dummyimage.com/115x113.bmp/dddddd/000000,http://usatoday.com,47.49764,19.021348
Brainlounge,3.9,http://dummyimage.com/247x158.png/cc0000/ffffff,https://edublogs.org,47.490416,19.064281
Avamm,3.8,http://dummyimage.com/138x220.png/5fa2dd/ffffff,http://senate.gov,47.502394,19.073866
Flashspan,2.5,http://dummyimage.com/121x240.png/5fa2dd/ffffff,https://businessweek.com,47.509744,19.077784
Quire,1.4,http://dummyimage.com/228x139.bmp/ff4444/ffffff,https://i2i.jp,47.498653,19.074994
Flashpoint,4.2,http://dummyimage.com/158x178.jpg/cc0000/ffffff,http://jugem.jp,47.502612,19.06713
Eimbee,4.5,http://dummyimage.com/118x146.bmp/cc0000/ffffff,http://usda.gov,47.486296,19.082223
Pixope,4.8,http://dummyimage.com/209x120.jpg/cc0000/ffffff,http://craigslist.org,47.4844,19.057226
Topicblab,2.1,http://dummyimage.com/235x233.jpg/ff4444/ffffff,https://mac.com,47.491214,19.081276
Voonder,1.0,http://dummyimage.com/121x156.bmp/ff4444/ffffff,https://pinterest.com,47.487781,19.015458
Kayveo,1.2,http://dummyimage.com/142x182.png/dddddd/000000,http://cbslocal.com,47.488581,19.069649
Ainyx,4.1,http://dummyimage.com/250x166.bmp/5fa2dd/ffffff,https://prnewswire.com,47.483647,19.028665
Quinu,4.7,http://dummyimage.com/186x219.jpg/5fa2dd/ffffff,https://jigsy.com,47.504712,19.021319
Browsedrive,3.3,http://dummyimage.com/183x187.bmp/dddddd/000000,https://gizmodo.com,47.504187,19.015561
Gigashots,3.8,http://dummyimage.com/242x167.png/cc0000/ffffff,http://uiuc.edu,47.513756,19.070109
Lazzy,3.2,http://dummyimage.com/108x186.jpg/ff4444/ffffff,http://amazon.co.jp,47.505559,19.041503
Ozu,1.6,http://dummyimage.com/225x170.png/cc0000/ffffff,https://shareasale.com,47.513728,19.050775
Youspan,3.3,http://dummyimage.com/145x201.jpg/cc0000/ffffff,https://forbes.com,47.51172,19.069308
Meetz,2.0,http://dummyimage.com/100x190.png/dddddd/000000,http://live.com,47.506335,19.081928
Brainlounge,4.2,http://dummyimage.com/151x171.jpg/ff4444/ffffff,http://cyberchimps.com,47.484241,19.03182
Agivu,1.5,http://dummyimage.com/136x131.png/5fa2dd/ffffff,https://omniture.com,47.497579,19.044022
Skidoo,4.6,http://dummyimage.com/121x114.png/cc0000/ffffff,https://patch.com,47.49568,19.023202
Meedoo,3.2,http://dummyimage.com/160x196.jpg/ff4444/ffffff,https://buzzfeed.com,47.482278,19.032719
Blogtag,2.2,http://dummyimage.com/192x114.bmp/cc0000/ffffff,http://flavors.me,47.479305,19.06695
Brightbean,1.6,http://dummyimage.com/222x200.bmp/ff4444/ffffff,https://berkeley.edu,47.481766,19.046203
Meejo,3.0,http://dummyimage.com/136x236.jpg/dddddd/000000,http://de.vu,47.491592,19.078199
Skinder,4.7,http://dummyimage.com/215x173.png/cc0000/ffffff,http://seesaa.net,47.493813,19.023142
Blogtags,1.4,http://dummyimage.com/208x163.png/cc0000/ffffff,http://usatoday.com,47.495904,19.021437
Meevee,3.8,http://dummyimage.com/112x141.jpg/cc0000/ffffff,https://smugmug.com,47.507383,19.017439
Twitterlist,1.1,http://dummyimage.com/196x198.bmp/cc0000/ffffff,https://deliciousdays.com,47.485484,19.041798
Ooba,2.9,http://dummyimage.com/223x163.png/5fa2dd/ffffff,https://ed.gov,47.494305,19.046934
Thoughtblab,2.7,http://dummyimage.com/245x224.bmp/dddddd/000000,https://un.org,47.502136,19.03967
Realmix,1.1,http://dummyimage.com/123x212.bmp/5fa2dd/ffffff,http://oracle.com,47.511784,19.022912
Rooxo,2.4,http://dummyimage.com/163x107.png/cc0000/ffffff,http://nps.gov,47.484682,19.037432
Browsetype,3.1,http://dummyimage.com/209x166.bmp/dddddd/000000,http://hubpages.com,47.485299,19.033807
Kazu,4.2,http://dummyimage.com/116x220.jpg/5fa2dd/ffffff,https://blogtalkradio.com,47.482851,19.021409
Brightdog,2.5,http://dummyimage.com/219x134.jpg/cc0000/ffffff,http://patch.com,47.487703,19.062356
Photobug,3.0,http://dummyimage.com/124x200.png/5fa2dd/ffffff,http://abc.net.au,47.505053,19.034109
Kazu,3.5,http://dummyimage.com/200x219.jpg/cc0000/ffffff,https://joomla.org,47.486965,19.015627
Fiveclub,1.1,http://dummyimage.com/188x105.png/dddddd/000000,http://skype.com,47.49547,19.025201
Jabbersphere,1.9,http://dummyimage.com/164x165.bmp/cc0000/ffffff,https://dot.gov,47.509551,19.08145
Realmix,2.5,http://dummyimage.com/105x173.bmp/5fa2dd/ffffff,https://hugedomains.com,47.509095,19.059319
Dynava,3.4,http://dummyimage.com/143x125.jpg/cc0000/ffffff,http://mapy.cz,47.496397,19.018898
Abata,3.0,http://dummyimage.com/156x117.bmp/ff4444/ffffff,http://pagesperso-orange.fr,47.512414,19.036897
Skimia,3.1,http://dummyimage.com/145x176.bmp/ff4444/ffffff,https://hhs.gov,47.505633,19.027236
Kaymbo,4.3,http://dummyimage.com/234x156.png/ff4444/ffffff,https://apache.org,47.495962,19.014534
Oyoyo,3.2,http://dummyimage.com/165x128.png/5fa2dd/ffffff,http://nymag.com,47.513208,19.052393
Quatz,1.0,http://dummyimage.com/235x132.jpg/cc0000/ffffff,https://bravesites.com,47.489927,19.024695
Abatz,1.4,http://dummyimage.com/196x205.jpg/dddddd/000000,http://vkontakte.ru,47.507229,19.024142
Devpulse,2.0,http://dummyimage.com/179x185.png/cc0000/ffffff,https://cargocollective.com,47.499271,19.081602
Voolia,2.0,http://dummyimage.com/238x243.png/dddddd/000000,https://merriam-webster.com,47.480277,19.079466
Yodo,2.4,http://dummyimage.com/125x104.bmp/dddddd/000000,http://51.la,47.513244,19.043632
Brightbean,2.8,http://dummyimage.com/104x121.jpg/cc0000/ffffff,https://salon.com,47.486451,19.035692
Buzzbean,4.2,http://dummyimage.com/240x250.bmp/5fa2dd/ffffff,https://cpanel.net,47.491186,19.065089
Pixoboo,2.4,http://dummyimage.com/181x221.bmp/ff4444/ffffff,https://cnn.com,47.481154,19.032264
Kanoodle,1.9,http://dummyimage.com/217x193.jpg/cc0000/ffffff,https://irs.gov,47.498516,19.048396
Skidoo,2.7,http://dummyimage.com/115x150.bmp/cc0000/ffffff,http://house.gov,47.499495,19.036934
Youopia,1.1,http://dummyimage.com/109x119.jpg/ff4444/ffffff,http://irs.gov,47.509616,19.019585
Skyble,4.2,http://dummyimage.com/246x144.png/5fa2dd/ffffff,http://addtoany.com,47.503085,19.03614
Realmix,2.8,http://dummyimage.com/246x175.png/cc0000/ffffff,http://ft.com,47.494803,19.062233
Skivee,2.4,http://dummyimage.com/171x125.jpg/5fa2dd/ffffff,http://nsw.gov.au,47.510374,19.081043
Oloo,1.2,http://dummyimage.com/120x219.jpg/ff4444/ffffff,http://nhs.uk,47.504688,19.056485
Flashset,1.1,http://dummyimage.com/221x140.jpg/cc0000/ffffff,http://house.gov,47.490286,19.081007
Topiclounge,1.3,http://dummyimage.com/249x222.png/ff4444/ffffff,https://oracle.com,47.486516,19.036974
Linktype,4.4,http://dummyimage.com/204x167.bmp/ff4444/ffffff,http://census.gov,47.484707,19.068235
Skipfire,2.5,http://dummyimage.com/115x160.jpg/ff4444/ffffff,https://is.gd,47.48728,19.058622
Feedbug,3.4,http://dummyimage.com/206x170.bmp/ff4444/ffffff,http://technorati.com,47.500948,19.020497
Roombo,1.7,http://dummyimage.com/206x195.bmp/ff4444/ffffff,http://unicef.org,47.490921,19.037319
Pixope,2.7,http://dummyimage.com/207x188.jpg/cc0000/ffffff,https://gnu.org,47.486818,19.079393
Avaveo,2.8,http://dummyimage.com/196x121.bmp/dddddd/000000,https://nih.gov,47.506811,19.069832
Thoughtbridge,4.4,http://dummyimage.com/112x159.bmp/ff4444/ffffff,http://hatena.ne.jp,47.506689,19.068029
Trilia,4.6,http://dummyimage.com/106x191.jpg/dddddd/000000,https://nyu.edu,47.492498,19.072631
Twitterwire,2.9,http://dummyimage.com/159x174.bmp/ff4444/ffffff,https://blogtalkradio.com,47.483224,19.056091
Skilith,3.3,http://dummyimage.com/120x106.jpg/dddddd/000000,https://bloglines.com,47.501648,19.073809
Realcube,1.2,http://dummyimage.com/163x182.bmp/dddddd/000000,http://timesonline.co.uk,47.4883,19.065409
Tagfeed,3.7,http://dummyimage.com/249x241.png/cc0000/ffffff,https://google.fr,47.483047,19.065336
Youspan,3.7,http://dummyimage.com/187x177.bmp/cc0000/ffffff,http://patch.com,47.499899,19.057238
Voonix,4.8,http://dummyimage.com/187x170.png/ff4444/ffffff,https://flavors.me,47.482381,19.076495
Aimbu,2.1,http://dummyimage.com/227x170.bmp/ff4444/ffffff,https://about.com,47.4922,19.025162
Wordware,4.8,http://dummyimage.com/150x171.bmp/cc0000/ffffff,https://imageshack.us,47.48722,19.061765
Mynte,4.9,http://dummyimage.com/110x230.png/cc0000/ffffff,https://1und1.de,47.49095,19.038916
Tekfly,4.8,http://dummyimage.com/117x242.png/dddddd/000000,http://webmd.com,47.507989,19.073517
Oyondu,2.5,http://dummyimage.com/174x145.jpg/ff4444/ffffff,http://meetup.com,47.495479,19.055758
Npath,2.4,http://dummyimage.com/234x225.png/ff4444/ffffff,https://pen.io,47.511609,19.023179
Thoughtworks,3.7,http://dummyimage.com/195x247.bmp/ff4444/ffffff,http://ted.com,47.496608,19.03812
Linktype,1.9,http://dummyimage.com/225x209.bmp/dddddd/000000,http://t.co,47.493288,19.051548
Rhyloo,1.0,http://dummyimage.com/174x123.png/dddddd/000000,http://oakley.com,47.499558,19.061378
Blognation,3.7,http://dummyimage.com/179x190.jpg/5fa2dd/ffffff,http://wikipedia.org,47.497857,19.066955
Gigabox,1.3,http://dummyimage.com/211x138.png/ff4444/ffffff,http://europa.eu,47.48667,19.016042
Trilith,1.3,http://dummyimage.com/247x168.bmp/dddddd/000000,http://baidu.com,47.503284,19.026613
Rhycero,1.6,http://dummyimage.com/100x187.png/dddddd/000000,https://soundcloud.com,47.487437,19.042522
Wikizz,2.7,http://dummyimage.com/139x131.bmp/cc0000/ffffff,https://kickstarter.com,47.506378,19.049779
Trudoo,4.9,http://dummyimage.com/164x135.png/5fa2dd/ffffff,https://yellowbook.com,47.504667,19.070859
Linklinks,2.6,http://dummyimage.com/192x195.bmp/cc0000/ffffff,https://cam.ac.uk,47.511885,19.018145
Twitterworks,1.7,http://dummyimage.com/135x146.png/5fa2dd/ffffff,http://ning.com,47.504859,19.041479
Mynte,4.7,http://dummyimage.com/150x191.jpg/dddddd/000000,http://blogtalkradio.com,47.493794,19.071931
Voomm,2.4,http://dummyimage.com/135x212.jpg/cc0000/ffffff,http://omniture.com,47.479615,19.081615
Kamba,1.9,http://dummyimage.com/123x190.bmp/5fa2dd/ffffff,http://infoseek.co.jp,47.488976,19.01521
Blogtag,2.6,http://dummyimage.com/174x101.jpg/5fa2dd/ffffff,http://cnbc.com,47.489331,19.034869
Omba,5.0,http://dummyimage.com/157x105.png/cc0000/ffffff,https://java.com,47.485607,19.032733
Oyoloo,3.4,http://dummyimage.com/184x237.bmp/5fa2dd/ffffff,https://blogtalkradio.com,47.499508,19.030102
Jetpulse,4.7,http://dummyimage.com/201x215.png/5fa2dd/ffffff,https://wiley.com,47.484538,19.052611
Mita,3.0,http://dummyimage.com/174x131.bmp/cc0000/ffffff,http://histats.com,47.506332,19.063613
Eayo,2.7,http://dummyimage.com/216x146.bmp/cc0000/ffffff,https://si.edu,47.500099,19.074377
Voonte,2.4,http://dummyimage.com/189x111.jpg/cc0000/ffffff,http://privacy.gov.au,47.499766,19.061376
Wikibox,2.2,http://dummyimage.com/192x218.png/5fa2dd/ffffff,http://icio.us,47.509519,19.025061
Voomm,1.3,http://dummyimage.com/152x110.png/cc0000/ffffff,http://craigslist.org,47.508262,19.039367
Blogpad,4.2,http://dummyimage.com/249x220.png/dddddd/000000,https://europa.eu,47.508661,19.015416
Eidel,2.9,http://dummyimage.com/159x161.bmp/dddddd/000000,http://utexas.edu,47.493117,19.02681
Chatterbridge,3.4,http://dummyimage.com/111x120.bmp/5fa2dd/ffffff,http://com.com,47.490577,19.053567
Eimbee,2.7,http://dummyimage.com/239x214.bmp/cc0000/ffffff,https://wiley.com,47.494336,19.057177
Yacero,2.2,http://dummyimage.com/171x188.jpg/ff4444/ffffff,https://goo.ne.jp,47.49549,19.061242
Tanoodle,1.5,http://dummyimage.com/128x192.bmp/5fa2dd/ffffff,https://cbslocal.com,47.505241,19.037158
Jazzy,4.4,http://dummyimage.com/131x114.bmp/cc0000/ffffff,http://google.com.hk,47.486146,19.057153
Flashpoint,1.2,http://dummyimage.com/145x236.bmp/ff4444/ffffff,https://cbslocal.com,47.507687,19.05123
Wikivu,2.0,http://dummyimage.com/124x164.png/dddddd/000000,https://weebly.com,47.480793,19.062539
Voolia,4.1,http://dummyimage.com/149x143.bmp/ff4444/ffffff,http://yahoo.co.jp,47.48625,19.06394
Layo,3.2,http://dummyimage.com/125x206.png/cc0000/ffffff,https://usa.gov,47.498016,19.019017
Quatz,4.8,http://dummyimage.com/217x223.jpg/cc0000/ffffff,http://goodreads.com,47.508693,19.028132
Divanoodle,4.4,http://dummyimage.com/133x192.png/cc0000/ffffff,https://seattletimes.com,47.493694,19.071403
Skimia,3.5,http://dummyimage.com/147x160.png/ff4444/ffffff,http://vimeo.com,47.491573,19.029512
Oyonder,1.9,http://dummyimage.com/200x164.bmp/5fa2dd/ffffff,http://wp.com,47.485859,19.046696
Wikizz,3.1,http://dummyimage.com/156x245.png/5fa2dd/ffffff,http://pen.io,47.504708,19.01455
Vidoo,2.5,http://dummyimage.com/131x210.bmp/5fa2dd/ffffff,http://lycos.com,47.492562,19.062071
Gigabox,4.8,http://dummyimage.com/155x209.png/dddddd/000000,https://tinypic.com,47.506343,19.063658
Shuffledrive,2.0,http://dummyimage.com/236x119.png/ff4444/ffffff,https://hexun.com,47.487815,19.078419
Fivespan,4.9,http://dummyimage.com/216x177.bmp/ff4444/ffffff,https://netlog.com,47.493323,19.051781
Tagpad,1.7,http://dummyimage.com/192x107.png/dddddd/000000,http://si.edu,47.483443,19.075584
InnoZ,1.7,http://dummyimage.com/204x177.png/dddddd/000000,http://washington.edu,47.503899,19.064767
Oyoyo,3.7,http://dummyimage.com/203x190.png/ff4444/ffffff,http://auda.org.au,47.496565,19.078276
Mudo,3.1,http://dummyimage.com/178x220.bmp/cc0000/ffffff,http://usnews.com,47.489633,19.080491
Topiczoom,2.7,http://dummyimage.com/104x153.png/cc0000/ffffff,https://ca.gov,47.507466,19.022777
Avamba,3.0,http://dummyimage.com/164x141.jpg/cc0000/ffffff,https://ask.com,47.487359,19.072723
Twimm,3.3,http://dummyimage.com/127x236.bmp/dddddd/000000,http://hostgator.com,47.512302,19.0427
Jaxworks,2.5,http://dummyimage.com/248x104.bmp/ff4444/ffffff,https://twitter.com,47.504947,19.018886
Zooveo,2.3,http://dummyimage.com/122x111.jpg/cc0000/ffffff,https://noaa.gov,47.501275,19.081847
Myworks,1.5,http://dummyimage.com/243x220.png/cc0000/ffffff,https://spiegel.de,47.482231,19.039462
Photospace,4.2,http://dummyimage.com/208x202.jpg/5fa2dd/ffffff,http://youtu.be,47.496758,19.031711
Cogilith,1.2,http://dummyimage.com/114x191.png/dddddd/000000,https://google.ru,47.484259,19.033286
Meejo,3.6,http://dummyimage.com/195x166.png/5fa2dd/ffffff,https://eventbrite.com,47.501203,19.047408
Viva,3.7,http://dummyimage.com/115x122.jpg/ff4444/ffffff,http://google.es,47.487125,19.03419
Kazio,3.9,http://dummyimage.com/149x156.bmp/cc0000/ffffff,https://mozilla.org,47.480356,19.02269
Browsecat,4.5,http://dummyimage.com/234x240.jpg/cc0000/ffffff,https://wiley.com,47.512652,19.014454
Kare,2.0,http://dummyimage.com/242x156.jpg/dddddd/000000,https://jalbum.net,47.497182,19.022353
Oyoloo,1.1,http://dummyimage.com/183x140.bmp/ff4444/ffffff,http://patch.com,47.507879,19.066873
Yodoo,2.4,http://dummyimage.com/120x220.png/ff4444/ffffff,http://webmd.com,47.503843,19.043594
Meevee,2.2,http://dummyimage.com/150x179.jpg/5fa2dd/ffffff,http://paginegialle.it,47.482255,19.040178
Trupe,4.5,http://dummyimage.com/110x244.png/dddddd/000000,https://addtoany.com,47.503127,19.023935
Digitube,3.6,http://dummyimage.com/126x110.png/5fa2dd/ffffff,https://netlog.com,47.499009,19.020202
Riffwire,3.9,http://dummyimage.com/216x222.jpg/ff4444/ffffff,http://tripadvisor.com,47.489623,19.079712
DabZ,3.8,http://dummyimage.com/138x243.png/5fa2dd/ffffff,http://behance.net,47.496949,19.037135
Gabtune,1.5,http://dummyimage.com/141x117.jpg/dddddd/000000,https://yelp.com,47.497008,19.019998
Gevee,1.5,http://dummyimage.com/243x235.jpg/ff4444/ffffff,https://cnbc.com,47.488824,19.060075
Voonte,1.3,http://dummyimage.com/233x158.png/dddddd/000000,https://geocities.jp,47.479683,19.043433
Jabbersphere,2.6,http://dummyimage.com/225x139.jpg/5fa2dd/ffffff,https://tmall.com,47.506251,19.06111
Rhynyx,4.4,http://dummyimage.com/119x145.png/5fa2dd/ffffff,http://themeforest.net,47.49626,19.027964
Quimba,2.0,http://dummyimage.com/157x247.png/ff4444/ffffff,https://ca.gov,47.498369,19.075233
Feednation,3.1,http://dummyimage.com/174x155.jpg/5fa2dd/ffffff,https://cnet.com,47.49362,19.072691
Browsecat,3.0,http://dummyimage.com/119x157.bmp/cc0000/ffffff,http://typepad.com,47.498867,19.07218
Bubblebox,2.7,http://dummyimage.com/119x239.png/dddddd/000000,https://tripod.com,47.506227,19.033784
Twitternation,2.1,http://dummyimage.com/119x150.jpg/ff4444/ffffff,https://loc.gov,47.478863,19.023062
Twitterworks,2.7,http://dummyimage.com/203x113.jpg/cc0000/ffffff,http://vinaora.com,47.481316,19.031736
Tavu,4.4,http://dummyimage.com/194x228.jpg/cc0000/ffffff,http://bluehost.com,47.507531,19.064526
Muxo,3.0,http://dummyimage.com/246x112.png/ff4444/ffffff,http://prnewswire.com,47.512314,19.048026
Roomm,2.9,http://dummyimage.com/146x198.jpg/ff4444/ffffff,https://noaa.gov,47.508385,19.037372
Rhynyx,4.7,http://dummyimage.com/154x182.png/dddddd/000000,https://storify.com,47.504592,19.052893
Katz,2.6,http://dummyimage.com/210x178.bmp/dddddd/000000,https://diigo.com,47.478869,19.048569
Brightbean,3.4,http://dummyimage.com/150x195.jpg/5fa2dd/ffffff,http://delicious.com,47.504699,19.066475
Jatri,3.6,http://dummyimage.com/180x130.bmp/dddddd/000000,https://geocities.jp,47.496328,19.050144
Photobug,1.2,http://dummyimage.com/187x209.png/5fa2dd/ffffff,https://oaic.gov.au,47.501108,19.044351
Feedfish,3.8,http://dummyimage.com/211x176.bmp/ff4444/ffffff,https://msn.com,47.494699,19.030732
Dazzlesphere,2.0,http://dummyimage.com/145x195.bmp/cc0000/ffffff,https://sakura.ne.jp,47.493142,19.015449
Topicware,1.5,http://dummyimage.com/177x242.jpg/cc0000/ffffff,http://time.com,47.493634,19.030672
Dynazzy,2.6,http://dummyimage.com/128x188.png/ff4444/ffffff,https://51.la,47.499007,19.051622
Agimba,2.5,http://dummyimage.com/143x114.bmp/5fa2dd/ffffff,http://example.com,47.483257,19.06531
Lajo,2.4,http://dummyimage.com/105x190.bmp/5fa2dd/ffffff,http://hao123.com,47.498058,19.075399
Topicshots,4.6,http://dummyimage.com/198x205.bmp/ff4444/ffffff,https://github.com,47.505321,19.062587
Thoughtmix,4.5,http://dummyimage.com/176x235.bmp/dddddd/000000,http://exblog.jp,47.501556,19.016171
Yacero,2.0,http://dummyimage.com/173x172.jpg/dddddd/000000,http://census.gov,47.48945,19.021578
Jaxnation,4.1,http://dummyimage.com/224x111.jpg/5fa2dd/ffffff,http://list-manage.com,47.482811,19.079492
Yoveo,3.6,http://dummyimage.com/120x130.bmp/cc0000/ffffff,http://skyrock.com,47.493498,19.061706
Blogtags,3.1,http://dummyimage.com/173x164.jpg/ff4444/ffffff,https://eventbrite.com,47.48869,19.048067
Jayo,4.6,http://dummyimage.com/209x212.bmp/5fa2dd/ffffff,http://elegantthemes.com,47.499967,19.057677
Kaymbo,1.6,http://dummyimage.com/161x196.bmp/cc0000/ffffff,http://godaddy.com,47.48825,19.050183
Brainsphere,1.4,http://dummyimage.com/211x229.jpg/cc0000/ffffff,https://de.vu,47.48609,19.028393
Meevee,1.5,http://dummyimage.com/183x166.png/5fa2dd/ffffff,https://gnu.org,47.492206,19.080474
Fivespan,3.6,http://dummyimage.com/135x133.png/dddddd/000000,https://nytimes.com,47.480388,19.058101
Tagtune,4.1,http://dummyimage.com/250x145.png/cc0000/ffffff,http://dell.com,47.51205,19.071051
Thoughtstorm,3.0,http://dummyimage.com/231x158.bmp/cc0000/ffffff,http://discovery.com,47.491144,19.018983
Avamm,3.3,http://dummyimage.com/125x167.bmp/dddddd/000000,http://a8.net,47.499013,19.059899
Voomm,5.0,http://dummyimage.com/196x225.bmp/ff4444/ffffff,http://walmart.com,47.500366,19.031834
Youspan,1.7,http://dummyimage.com/135x225.png/ff4444/ffffff,https://fc2.com,47.508649,19.055968
Youbridge,1.6,http://dummyimage.com/177x147.bmp/5fa2dd/ffffff,http://smugmug.com,47.491272,19.082347
Skivee,2.5,http://dummyimage.com/185x181.bmp/ff4444/ffffff,https://liveinternet.ru,47.491002,19.063199
Blognation,4.7,http://dummyimage.com/247x238.bmp/dddddd/000000,https://zimbio.com,47.512472,19.044056
Mycat,4.7,http://dummyimage.com/240x236.jpg/cc0000/ffffff,http://xinhuanet.com,47.51008,19.051317
Quinu,4.3,http://dummyimage.com/244x245.bmp/5fa2dd/ffffff,http://ox.ac.uk,47.504528,19.035911
Yotz,1.7,http://dummyimage.com/245x188.png/5fa2dd/ffffff,http://myspace.com,47.502271,19.073354
Brightdog,2.9,http://dummyimage.com/144x101.jpg/dddddd/000000,http://ehow.com,47.484015,19.024288
Quimba,2.4,http://dummyimage.com/139x159.bmp/dddddd/000000,https://disqus.com,47.490142,19.058013
Skyble,2.7,http://dummyimage.com/111x242.png/cc0000/ffffff,http://yandex.ru,47.490644,19.049078
Einti,1.5,http://dummyimage.com/121x119.bmp/ff4444/ffffff,http://google.com.au,47.486417,19.037168
Meeveo,4.5,http://dummyimage.com/108x159.png/ff4444/ffffff,https://bluehost.com,47.4789,19.055873
InnoZ,1.3,http://dummyimage.com/186x158.png/dddddd/000000,https://dropbox.com,47.48424,19.014667
Fliptune,1.2,http://dummyimage.com/224x206.jpg/5fa2dd/ffffff,https://geocities.jp,47.496045,19.073312
Zoozzy,3.5,http://dummyimage.com/188x117.jpg/cc0000/ffffff,http://state.tx.us,47.482031,19.055949
Skyvu,3.3,http://dummyimage.com/167x202.bmp/dddddd/000000,https://instagram.com,47.510784,19.042911
Latz,1.7,http://dummyimage.com/242x125.bmp/dddddd/000000,http://bloglines.com,47.503238,19.01756
Rooxo,4.8,http://dummyimage.com/239x230.jpg/cc0000/ffffff,http://washington.edu,47.50188,19.030691
Twinte,4.9,http://dummyimage.com/107x158.png/dddddd/000000,https://unc.edu,47.490112,19.053229
Mycat,3.2,http://dummyimage.com/183x167.jpg/dddddd/000000,http://buzzfeed.com,47.488535,19.022853
Wikivu,4.6,http://dummyimage.com/110x180.png/cc0000/ffffff,http://linkedin.com,47.512396,19.037602
Dynabox,3.8,http://dummyimage.com/195x137.jpg/5fa2dd/ffffff,https://oracle.com,47.48805,19.075241
Dabtype,2.0,http://dummyimage.com/188x247.png/dddddd/000000,http://arizona.edu,47.493318,19.065321
Innotype,2.4,http://dummyimage.com/220x121.bmp/cc0000/ffffff,http://blogtalkradio.com,47.482531,19.05751
Devpulse,4.3,http://dummyimage.com/242x190.bmp/ff4444/ffffff,http://nhs.uk,47.504634,19.0764
Zooveo,3.6,http://dummyimage.com/124x140.bmp/ff4444/ffffff,http://jimdo.com,47.484385,19.071682
Tanoodle,3.6,http://dummyimage.com/121x100.jpg/dddddd/000000,https://ucla.edu,47.483991,19.069687
Feedfish,1.5,http://dummyimage.com/209x100.bmp/cc0000/ffffff,https://about.me,47.511159,19.063693
Photobug,2.6,http://dummyimage.com/240x210.png/dddddd/000000,http://cisco.com,47.508761,19.046469
Quatz,2.0,http://dummyimage.com/144x134.png/dddddd/000000,http://people.com.cn,47.479117,19.057574
Browseblab,3.7,http://dummyimage.com/180x219.bmp/5fa2dd/ffffff,https://go.com,47.509666,19.066655
Roomm,4.3,http://dummyimage.com/191x193.bmp/cc0000/ffffff,http://answers.com,47.495421,19.021867
Vidoo,3.3,http://dummyimage.com/136x208.jpg/ff4444/ffffff,http://imgur.com,47.508294,19.048469
Demimbu,1.8,http://dummyimage.com/152x119.jpg/cc0000/ffffff,https://tiny.cc,47.495213,19.032304
Miboo,3.1,http://dummyimage.com/149x212.png/ff4444/ffffff,https://t-online.de,47.49785,19.035055
Skynoodle,1.8,http://dummyimage.com/122x103.jpg/5fa2dd/ffffff,http://123-reg.co.uk,47.499887,19.063764
Devshare,1.3,http://dummyimage.com/128x249.bmp/cc0000/ffffff,http://squidoo.com,47.479798,19.045132
Linktype,4.1,http://dummyimage.com/107x202.jpg/5fa2dd/ffffff,http://networkadvertising.org,47.484483,19.061678
Bubblemix,3.0,http://dummyimage.com/107x124.png/cc0000/ffffff,http://about.com,47.486296,19.059802
Bluezoom,1.1,http://dummyimage.com/123x210.png/5fa2dd/ffffff,https://constantcontact.com,47.511469,19.064303
Skinte,1.8,http://dummyimage.com/202x237.png/5fa2dd/ffffff,http://nasa.gov,47.510868,19.048227
DabZ,1.8,http://dummyimage.com/197x249.jpg/dddddd/000000,https://oakley.com,47.493282,19.055324
Yodoo,2.8,http://dummyimage.com/180x186.jpg/dddddd/000000,https://unc.edu,47.502107,19.047687
Skyvu,1.1,http://dummyimage.com/218x134.jpg/dddddd/000000,http://ucoz.ru,47.508195,19.076303
Kanoodle,2.0,http://dummyimage.com/165x217.bmp/ff4444/ffffff,http://ustream.tv,47.513574,19.063369
Voomm,4.3,http://dummyimage.com/123x179.jpg/ff4444/ffffff,https://storify.com,47.509342,19.026629
Kaymbo,2.9,http://dummyimage.com/241x138.png/ff4444/ffffff,https://youtube.com,47.480921,19.033385
Aibox,3.2,http://dummyimage.com/107x118.jpg/5fa2dd/ffffff,http://wisc.edu,47.492777,19.039377
Topicshots,4.8,http://dummyimage.com/239x106.bmp/ff4444/ffffff,https://omniture.com,47.500563,19.035256
Janyx,2.6,http://dummyimage.com/103x236.jpg/ff4444/ffffff,http://unicef.org,47.502772,19.026487
Skipstorm,1.6,http://dummyimage.com/229x107.jpg/cc0000/ffffff,https://archive.org,47.503824,19.073213
Topicstorm,1.6,http://dummyimage.com/244x133.bmp/ff4444/ffffff,https://360.cn,47.512953,19.079799
Photolist,3.0,http://dummyimage.com/243x131.png/5fa2dd/ffffff,https://pen.io,47.506413,19.040027
Browsedrive,1.8,http://dummyimage.com/146x135.bmp/cc0000/ffffff,http://wix.com,47.478969,19.064891
Twitterbeat,3.1,http://dummyimage.com/130x180.bmp/ff4444/ffffff,http://dropbox.com,47.479506,19.079951
Flipopia,2.2,http://dummyimage.com/240x162.bmp/dddddd/000000,http://bloomberg.com,47.507851,19.038427
Edgeclub,2.6,http://dummyimage.com/122x127.bmp/5fa2dd/ffffff,http://netvibes.com,47.507709,19.050568
Feedfire,1.8,http://dummyimage.com/133x121.png/5fa2dd/ffffff,https://webmd.com,47.503646,19.053265
Quamba,2.9,http://dummyimage.com/206x167.bmp/cc0000/ffffff,http://noaa.gov,47.504321,19.043637
Gabspot,2.4,http://dummyimage.com/137x148.png/ff4444/ffffff,http://deliciousdays.com,47.485778,19.052734
Twitternation,3.1,http://dummyimage.com/221x240.jpg/5fa2dd/ffffff,http://alexa.com,47.499959,19.082015
Wordpedia,4.2,http://dummyimage.com/138x105.bmp/5fa2dd/ffffff,http://technorati.com,47.489825,19.052018
Bluezoom,1.3,http://dummyimage.com/133x108.bmp/5fa2dd/ffffff,https://infoseek.co.jp,47.48425,19.034517
Plajo,3.5,http://dummyimage.com/174x124.bmp/dddddd/000000,https://army.mil,47.494197,19.068254
Voonix,5.0,http://dummyimage.com/160x196.bmp/5fa2dd/ffffff,https://patch.com,47.509317,19.05419
